{"-79.95281|40.45364": {"meta": {"code": 200, "requestId": "5f13f49191171b59f7d0b79f"}, "response": {"warning": {"text": "There aren't a lot of results near you. Try something more general, reset your filters, or expand the search area."}, "headerLocation": "North Oakland", "headerFullLocation": "North Oakland, Pittsburgh", "headerLocationGranularity": "neighborhood", "query": "supermarket", "totalResults": 0, "suggestedBounds": {"ne": {"lat": 40.46264000900001, "lng": -79.94100445849456}, "sw": {"lat": 40.44463999099999, "lng": -79.96461554150544}}, "groups": [{"type": "Recommended Places", "name": "recommended", "items": []}]}}, "-79.95286999999999|40.4491299": {"meta": {"code": 200, "requestId": "5f13f48f0b112316489363b1"}, "response": {"warning": {"text": "There aren't a lot of results near you. Try something more general, reset your filters, or expand the search area."}, "headerLocation": "North Oakland", "headerFullLocation": "North Oakland, Pittsburgh", "headerLocationGranularity": "neighborhood", "query": "supermarket", "totalResults": 0, "suggestedBounds": {"ne": {"lat": 40.458129909000014, "lng": -79.94106525079061}, "sw": {"lat": 40.44012989099999, "lng": -79.96467474920937}}, "groups": [{"type": "Recommended Places", "name": "recommended", "items": []}]}}, "-79.95215|40.449870000000004": {"meta": {"code": 200, "requestId": "5f13f437007e716904fb6ff6"}, "response": {"warning": {"text": "There aren't a lot of results near you. Try something more general, reset your filters, or expand the search area."}, "headerLocation": "North Oakland", "headerFullLocation": "North Oakland, Pittsburgh", "headerLocationGranularity": "neighborhood", "query": "supermarket", "totalResults": 0, "suggestedBounds": {"ne": {"lat": 40.458870009000016, "lng": -79.94034512078846}, "sw": {"lat": 40.44086999099999, "lng": -79.96395487921154}}, "groups": [{"type": "Recommended Places", "name": "recommended", "items": []}]}}, "-79.95135|40.44852": {"meta": {"code": 200, "requestId": "5f13f309bc542b0b9af06cd4"}, "response": {"warning": {"text": "There aren't a lot of results near you. Try something more general, reset your filters, or expand the search area."}, "headerLocation": "North Oakland", "headerFullLocation": "North Oakland, Pittsburgh", "headerLocationGranularity": "neighborhood", "query": "supermarket", "totalResults": 0, "suggestedBounds": {"ne": {"lat": 40.457520009000014, "lng": -79.93954535791892}, "sw": {"lat": 40.43951999099999, "lng": -79.9631546420811}}, "groups": [{"type": "Recommended Places", "name": "recommended", "items": []}]}}, "-79.95116999999999|40.4482799": {"meta": {"code": 200, "requestId": "5f13f4f4b03989534b4f20fe"}, "response": {"warning": {"text": "There aren't a lot of results near you. Try something more general, reset your filters, or expand the search area."}, "headerLocation": "North Oakland", "headerFullLocation": "North Oakland, Pittsburgh", "headerLocationGranularity": "neighborhood", "query": "supermarket", "totalResults": 0, "suggestedBounds": {"ne": {"lat": 40.457279909000015, "lng": -79.9393654000913}, "sw": {"lat": 40.43927989099999, "lng": -79.96297459990868}}, "groups": [{"type": "Recommended Places", "name": "recommended", "items": []}]}}, "-79.9502|40.44535": {"meta": {"code": 200, "requestId": "5f13f53058d9ca05f70dbb82"}, "response": {"warning": {"text": "There aren't a lot of results near you. Try something more general, reset your filters, or expand the search area."}, "headerLocation": "North Oakland", "headerFullLocation": "North Oakland, Pittsburgh", "headerLocationGranularity": "neighborhood", "query": "supermarket", "totalResults": 0, "suggestedBounds": {"ne": {"lat": 40.45435000900001, "lng": -79.93839591467312}, "sw": {"lat": 40.436349990999986, "lng": -79.96200408532687}}, "groups": [{"type": "Recommended Places", "name": "recommended", "items": []}]}}, "-79.93425690000001|40.457058700000005": {"meta": {"code": 200, "requestId": "5f13f5435de8cc2b21e416d6"}, "response": {"headerLocation": "Shadyside", "headerFullLocation": "Shadyside, Pittsburgh", "headerLocationGranularity": "neighborhood", "query": "supermarket", "totalResults": 4, "suggestedBounds": {"ne": {"lat": 40.466058709000016, "lng": -79.92245075780679}, "sw": {"lat": 40.44805869099999, "lng": -79.94606304219323}}, "groups": [{"type": "Recommended Places", "name": "recommended", "items": [{"reasons": {"count": 0, "items": [{"summary": "This spot is popular", "type": "general", "reasonName": "globalInteractionReason"}]}, "venue": {"id": "518a8159498e5779f0ce0941", "name": "ALDI", "location": {"address": "5631 Baum Blvd", "crossStreet": "Roup Avenue", "lat": 40.4586334, "lng": -79.9350286, "labeledLatLngs": [{"label": "display", "lat": 40.4586334, "lng": -79.9350286}, {"label": "entrance", "lat": 40.458103, "lng": -79.934937}], "distance": 187, "postalCode": "15206", "cc": "US", "city": "Pittsburgh", "state": "PA", "country": "United States", "formattedAddress": ["5631 Baum Blvd (Roup Avenue)", "Pittsburgh, PA 15206", "United States"]}, "categories": [{"id": "4bf58dd8d48988d118951735", "name": "Grocery Store", "pluralName": "Grocery Stores", "shortName": "Grocery Store", "icon": {"prefix": "https://ss3.4sqi.net/img/categories_v2/shops/food_grocery_", "suffix": ".png"}, "primary": true}], "photos": {"count": 0, "groups": []}}, "referralId": "e-0-518a8159498e5779f0ce0941-0"}, {"reasons": {"count": 0, "items": [{"summary": "This spot is popular", "type": "general", "reasonName": "globalInteractionReason"}]}, "venue": {"id": "4a36f484f964a5200f9e1fe3", "name": "Market District Supermarket", "location": {"address": "5550 Centre Ave", "crossStreet": "at S Negley Ave", "lat": 40.4566178038739, "lng": -79.93470131513821, "labeledLatLngs": [{"label": "display", "lat": 40.4566178038739, "lng": -79.93470131513821}], "distance": 61, "postalCode": "15232", "cc": "US", "city": "Pittsburgh", "state": "PA", "country": "United States", "formattedAddress": ["5550 Centre Ave (at S Negley Ave)", "Pittsburgh, PA 15232", "United States"]}, "categories": [{"id": "52f2ab2ebcbc57f1066b8b46", "name": "Supermarket", "pluralName": "Supermarkets", "shortName": "Supermarket", "icon": {"prefix": "https://ss3.4sqi.net/img/categories_v2/shops/food_grocery_", "suffix": ".png"}, "primary": true}], "photos": {"count": 0, "groups": []}}, "referralId": "e-0-4a36f484f964a5200f9e1fe3-1"}, {"reasons": {"count": 0, "items": [{"summary": "This spot is popular", "type": "general", "reasonName": "globalInteractionReason"}]}, "venue": {"id": "56626299498e4003defb9d34", "name": "ALDI", "location": {"address": "5200 Penn Ave", "crossStreet": "Pacific Ave", "lat": 40.4644316, "lng": -79.9394174, "labeledLatLngs": [{"label": "display", "lat": 40.4644316, "lng": -79.9394174}], "distance": 929, "postalCode": "15224", "cc": "US", "city": "Pittsburgh", "state": "PA", "country": "United States", "formattedAddress": ["5200 Penn Ave (Pacific Ave)", "Pittsburgh, PA 15224", "United States"]}, "categories": [{"id": "52f2ab2ebcbc57f1066b8b46", "name": "Supermarket", "pluralName": "Supermarkets", "shortName": "Supermarket", "icon": {"prefix": "https://ss3.4sqi.net/img/categories_v2/shops/food_grocery_", "suffix": ".png"}, "primary": true}], "photos": {"count": 0, "groups": []}}, "referralId": "e-0-56626299498e4003defb9d34-2"}, {"reasons": {"count": 0, "items": [{"summary": "This spot is popular", "type": "general", "reasonName": "globalInteractionReason"}]}, "venue": {"id": "518ac466498ecfed3e8fc9a2", "name": "ALDI", "location": {"address": "Roup ave", "crossStreet": "Baum blvd", "lat": 40.454062529522126, "lng": -79.93188141269417, "labeledLatLngs": [{"label": "display", "lat": 40.454062529522126, "lng": -79.93188141269417}], "distance": 389, "cc": "US", "city": "Pittsburgh", "state": "PA", "country": "United States", "formattedAddress": ["Roup ave (Baum blvd)", "Pittsburgh, PA", "United States"]}, "categories": [{"id": "52f2ab2ebcbc57f1066b8b46", "name": "Supermarket", "pluralName": "Supermarkets", "shortName": "Supermarket", "icon": {"prefix": "https://ss3.4sqi.net/img/categories_v2/shops/food_grocery_", "suffix": ".png"}, "primary": true}], "photos": {"count": 0, "groups": []}}, "referralId": "e-0-518ac466498ecfed3e8fc9a2-3"}]}]}}, "-79.93575|40.4566": {"meta": {"code": 200, "requestId": "5f13f4aad2cc40362015d182"}, "response": {"headerLocation": "Shadyside", "headerFullLocation": "Shadyside, Pittsburgh", "headerLocationGranularity": "neighborhood", "query": "supermarket", "totalResults": 4, "suggestedBounds": {"ne": {"lat": 40.46560000900001, "lng": -79.92394393840934}, "sw": {"lat": 40.44759999099999, "lng": -79.94755606159066}}, "groups": [{"type": "Recommended Places", "name": "recommended", "items": [{"reasons": {"count": 0, "items": [{"summary": "This spot is popular", "type": "general", "reasonName": "globalInteractionReason"}]}, "venue": {"id": "518a8159498e5779f0ce0941", "name": "ALDI", "location": {"address": "5631 Baum Blvd", "crossStreet": "Roup Avenue", "lat": 40.4586334, "lng": -79.9350286, "labeledLatLngs": [{"label": "display", "lat": 40.4586334, "lng": -79.9350286}, {"label": "entrance", "lat": 40.458103, "lng": -79.934937}], "distance": 234, "postalCode": "15206", "cc": "US", "city": "Pittsburgh", "state": "PA", "country": "United States", "formattedAddress": ["5631 Baum Blvd (Roup Avenue)", "Pittsburgh, PA 15206", "United States"]}, "categories": [{"id": "4bf58dd8d48988d118951735", "name": "Grocery Store", "pluralName": "Grocery Stores", "shortName": "Grocery Store", "icon": {"prefix": "https://ss3.4sqi.net/img/categories_v2/shops/food_grocery_", "suffix": ".png"}, "primary": true}], "photos": {"count": 0, "groups": []}}, "referralId": "e-0-518a8159498e5779f0ce0941-0"}, {"reasons": {"count": 0, "items": [{"summary": "This spot is popular", "type": "general", "reasonName": "globalInteractionReason"}]}, "venue": {"id": "4a36f484f964a5200f9e1fe3", "name": "Market District Supermarket", "location": {"address": "5550 Centre Ave", "crossStreet": "at S Negley Ave", "lat": 40.4566178038739, "lng": -79.93470131513821, "labeledLatLngs": [{"label": "display", "lat": 40.4566178038739, "lng": -79.93470131513821}], "distance": 88, "postalCode": "15232", "cc": "US", "city": "Pittsburgh", "state": "PA", "country": "United States", "formattedAddress": ["5550 Centre Ave (at S Negley Ave)", "Pittsburgh, PA 15232", "United States"]}, "categories": [{"id": "52f2ab2ebcbc57f1066b8b46", "name": "Supermarket", "pluralName": "Supermarkets", "shortName": "Supermarket", "icon": {"prefix": "https://ss3.4sqi.net/img/categories_v2/shops/food_grocery_", "suffix": ".png"}, "primary": true}], "photos": {"count": 0, "groups": []}}, "referralId": "e-0-4a36f484f964a5200f9e1fe3-1"}, {"reasons": {"count": 0, "items": [{"summary": "This spot is popular", "type": "general", "reasonName": "globalInteractionReason"}]}, "venue": {"id": "56626299498e4003defb9d34", "name": "ALDI", "location": {"address": "5200 Penn Ave", "crossStreet": "Pacific Ave", "lat": 40.4644316, "lng": -79.9394174, "labeledLatLngs": [{"label": "display", "lat": 40.4644316, "lng": -79.9394174}], "distance": 925, "postalCode": "15224", "cc": "US", "city": "Pittsburgh", "state": "PA", "country": "United States", "formattedAddress": ["5200 Penn Ave (Pacific Ave)", "Pittsburgh, PA 15224", "United States"]}, "categories": [{"id": "52f2ab2ebcbc57f1066b8b46", "name": "Supermarket", "pluralName": "Supermarkets", "shortName": "Supermarket", "icon": {"prefix": "https://ss3.4sqi.net/img/categories_v2/shops/food_grocery_", "suffix": ".png"}, "primary": true}], "photos": {"count": 0, "groups": []}}, "referralId": "e-0-56626299498e4003defb9d34-2"}, {"reasons": {"count": 0, "items": [{"summary": "This spot is popular", "type": "general", "reasonName": "globalInteractionReason"}]}, "venue": {"id": "518ac466498ecfed3e8fc9a2", "name": "ALDI", "location": {"address": "Roup ave", "crossStreet": "Baum blvd", "lat": 40.454062529522126, "lng": -79.93188141269417, "labeledLatLngs": [{"label": "display", "lat": 40.454062529522126, "lng": -79.93188141269417}], "distance": 432, "cc": "US", "city": "Pittsburgh", "state": "PA", "country": "United States", "formattedAddress": ["Roup ave (Baum blvd)", "Pittsburgh, PA", "United States"]}, "categories": [{"id": "52f2ab2ebcbc57f1066b8b46", "name": "Supermarket", "pluralName": "Supermarkets", "shortName": "Supermarket", "icon": {"prefix": "https://ss3.4sqi.net/img/categories_v2/shops/food_grocery_", "suffix": ".png"}, "primary": true}], "photos": {"count": 0, "groups": []}}, "referralId": "e-0-518ac466498ecfed3e8fc9a2-3"}]}]}}, "-79.93511|40.45518": {"meta": {"code": 200, "requestId": "5f13f35964f56678ceaa412c"}, "response": {"warning": {"text": "There aren't a lot of results near you. Try something more general, reset your filters, or expand the search area."}, "headerLocation": "Shadyside", "headerFullLocation": "Shadyside, Pittsburgh", "headerLocationGranularity": "neighborhood", "query": "supermarket", "totalResults": 3, "suggestedBounds": {"ne": {"lat": 40.46418000900001, "lng": -79.92330418791933}, "sw": {"lat": 40.44617999099999, "lng": -79.94691581208066}}, "groups": [{"type": "Recommended Places", "name": "recommended", "items": [{"reasons": {"count": 0, "items": [{"summary": "This spot is popular", "type": "general", "reasonName": "globalInteractionReason"}]}, "venue": {"id": "518a8159498e5779f0ce0941", "name": "ALDI", "location": {"address": "5631 Baum Blvd", "crossStreet": "Roup Avenue", "lat": 40.4586334, "lng": -79.9350286, "labeledLatLngs": [{"label": "display", "lat": 40.4586334, "lng": -79.9350286}, {"label": "entrance", "lat": 40.458103, "lng": -79.934937}], "distance": 384, "postalCode": "15206", "cc": "US", "city": "Pittsburgh", "state": "PA", "country": "United States", "formattedAddress": ["5631 Baum Blvd (Roup Avenue)", "Pittsburgh, PA 15206", "United States"]}, "categories": [{"id": "4bf58dd8d48988d118951735", "name": "Grocery Store", "pluralName": "Grocery Stores", "shortName": "Grocery Store", "icon": {"prefix": "https://ss3.4sqi.net/img/categories_v2/shops/food_grocery_", "suffix": ".png"}, "primary": true}], "photos": {"count": 0, "groups": []}}, "referralId": "e-0-518a8159498e5779f0ce0941-0"}, {"reasons": {"count": 0, "items": [{"summary": "This spot is popular", "type": "general", "reasonName": "globalInteractionReason"}]}, "venue": {"id": "4a36f484f964a5200f9e1fe3", "name": "Market District Supermarket", "location": {"address": "5550 Centre Ave", "crossStreet": "at S Negley Ave", "lat": 40.4566178038739, "lng": -79.93470131513821, "labeledLatLngs": [{"label": "display", "lat": 40.4566178038739, "lng": -79.93470131513821}], "distance": 163, "postalCode": "15232", "cc": "US", "city": "Pittsburgh", "state": "PA", "country": "United States", "formattedAddress": ["5550 Centre Ave (at S Negley Ave)", "Pittsburgh, PA 15232", "United States"]}, "categories": [{"id": "52f2ab2ebcbc57f1066b8b46", "name": "Supermarket", "pluralName": "Supermarkets", "shortName": "Supermarket", "icon": {"prefix": "https://ss3.4sqi.net/img/categories_v2/shops/food_grocery_", "suffix": ".png"}, "primary": true}], "photos": {"count": 0, "groups": []}}, "referralId": "e-0-4a36f484f964a5200f9e1fe3-1"}, {"reasons": {"count": 0, "items": [{"summary": "This spot is popular", "type": "general", "reasonName": "globalInteractionReason"}]}, "venue": {"id": "518ac466498ecfed3e8fc9a2", "name": "ALDI", "location": {"address": "Roup ave", "crossStreet": "Baum blvd", "lat": 40.454062529522126, "lng": -79.93188141269417, "labeledLatLngs": [{"label": "display", "lat": 40.454062529522126, "lng": -79.93188141269417}], "distance": 300, "cc": "US", "city": "Pittsburgh", "state": "PA", "country": "United States", "formattedAddress": ["Roup ave (Baum blvd)", "Pittsburgh, PA", "United States"]}, "categories": [{"id": "52f2ab2ebcbc57f1066b8b46", "name": "Supermarket", "pluralName": "Supermarkets", "shortName": "Supermarket", "icon": {"prefix": "https://ss3.4sqi.net/img/categories_v2/shops/food_grocery_", "suffix": ".png"}, "primary": true}], "photos": {"count": 0, "groups": []}}, "referralId": "e-0-518ac466498ecfed3e8fc9a2-2"}]}]}}, "-79.93599|40.454640000000005": {"meta": {"code": 200, "requestId": "5f13f4e02ac7fd10004924d8"}, "response": {"warning": {"text": "There aren't a lot of results near you. Try something more general, reset your filters, or expand the search area."}, "headerLocation": "Shadyside", "headerFullLocation": "Shadyside, Pittsburgh", "headerLocationGranularity": "neighborhood", "query": "supermarket", "totalResults": 3, "suggestedBounds": {"ne": {"lat": 40.46364000900002, "lng": -79.92418428279875}, "sw": {"lat": 40.44563999099999, "lng": -79.94779571720126}}, "groups": [{"type": "Recommended Places", "name": "recommended", "items": [{"reasons": {"count": 0, "items": [{"summary": "This spot is popular", "type": "general", "reasonName": "globalInteractionReason"}]}, "venue": {"id": "518a8159498e5779f0ce0941", "name": "ALDI", "location": {"address": "5631 Baum Blvd", "crossStreet": "Roup Avenue", "lat": 40.4586334, "lng": -79.9350286, "labeledLatLngs": [{"label": "display", "lat": 40.4586334, "lng": -79.9350286}, {"label": "entrance", "lat": 40.458103, "lng": -79.934937}], "distance": 451, "postalCode": "15206", "cc": "US", "city": "Pittsburgh", "state": "PA", "country": "United States", "formattedAddress": ["5631 Baum Blvd (Roup Avenue)", "Pittsburgh, PA 15206", "United States"]}, "categories": [{"id": "4bf58dd8d48988d118951735", "name": "Grocery Store", "pluralName": "Grocery Stores", "shortName": "Grocery Store", "icon": {"prefix": "https://ss3.4sqi.net/img/categories_v2/shops/food_grocery_", "suffix": ".png"}, "primary": true}], "photos": {"count": 0, "groups": []}}, "referralId": "e-0-518a8159498e5779f0ce0941-0"}, {"reasons": {"count": 0, "items": [{"summary": "This spot is popular", "type": "general", "reasonName": "globalInteractionReason"}]}, "venue": {"id": "4a36f484f964a5200f9e1fe3", "name": "Market District Supermarket", "location": {"address": "5550 Centre Ave", "crossStreet": "at S Negley Ave", "lat": 40.4566178038739, "lng": -79.93470131513821, "labeledLatLngs": [{"label": "display", "lat": 40.4566178038739, "lng": -79.93470131513821}], "distance": 245, "postalCode": "15232", "cc": "US", "city": "Pittsburgh", "state": "PA", "country": "United States", "formattedAddress": ["5550 Centre Ave (at S Negley Ave)", "Pittsburgh, PA 15232", "United States"]}, "categories": [{"id": "52f2ab2ebcbc57f1066b8b46", "name": "Supermarket", "pluralName": "Supermarkets", "shortName": "Supermarket", "icon": {"prefix": "https://ss3.4sqi.net/img/categories_v2/shops/food_grocery_", "suffix": ".png"}, "primary": true}], "photos": {"count": 0, "groups": []}}, "referralId": "e-0-4a36f484f964a5200f9e1fe3-1"}, {"reasons": {"count": 0, "items": [{"summary": "This spot is popular", "type": "general", "reasonName": "globalInteractionReason"}]}, "venue": {"id": "518ac466498ecfed3e8fc9a2", "name": "ALDI", "location": {"address": "Roup ave", "crossStreet": "Baum blvd", "lat": 40.454062529522126, "lng": -79.93188141269417, "labeledLatLngs": [{"label": "display", "lat": 40.454062529522126, "lng": -79.93188141269417}], "distance": 353, "cc": "US", "city": "Pittsburgh", "state": "PA", "country": "United States", "formattedAddress": ["Roup ave (Baum blvd)", "Pittsburgh, PA", "United States"]}, "categories": [{"id": "52f2ab2ebcbc57f1066b8b46", "name": "Supermarket", "pluralName": "Supermarkets", "shortName": "Supermarket", "icon": {"prefix": "https://ss3.4sqi.net/img/categories_v2/shops/food_grocery_", "suffix": ".png"}, "primary": true}], "photos": {"count": 0, "groups": []}}, "referralId": "e-0-518ac466498ecfed3e8fc9a2-2"}]}]}}, "-79.93701|40.45361": {"meta": {"code": 200, "requestId": "5f13f4283aed6f3c7ea80984"}, "response": {"warning": {"text": "There aren't a lot of results near you. Try something more general, reset your filters, or expand the search area."}, "headerLocation": "Shadyside", "headerFullLocation": "Shadyside, Pittsburgh", "headerLocationGranularity": "neighborhood", "query": "supermarket", "totalResults": 3, "suggestedBounds": {"ne": {"lat": 40.46261000900001, "lng": -79.9252044637653}, "sw": {"lat": 40.444609990999986, "lng": -79.9488155362347}}, "groups": [{"type": "Recommended Places", "name": "recommended", "items": [{"reasons": {"count": 0, "items": [{"summary": "This spot is popular", "type": "general", "reasonName": "globalInteractionReason"}]}, "venue": {"id": "518a8159498e5779f0ce0941", "name": "ALDI", "location": {"address": "5631 Baum Blvd", "crossStreet": "Roup Avenue", "lat": 40.4586334, "lng": -79.9350286, "labeledLatLngs": [{"label": "display", "lat": 40.4586334, "lng": -79.9350286}, {"label": "entrance", "lat": 40.458103, "lng": -79.934937}], "distance": 583, "postalCode": "15206", "cc": "US", "city": "Pittsburgh", "state": "PA", "country": "United States", "formattedAddress": ["5631 Baum Blvd (Roup Avenue)", "Pittsburgh, PA 15206", "United States"]}, "categories": [{"id": "4bf58dd8d48988d118951735", "name": "Grocery Store", "pluralName": "Grocery Stores", "shortName": "Grocery Store", "icon": {"prefix": "https://ss3.4sqi.net/img/categories_v2/shops/food_grocery_", "suffix": ".png"}, "primary": true}], "photos": {"count": 0, "groups": []}}, "referralId": "e-0-518a8159498e5779f0ce0941-0"}, {"reasons": {"count": 0, "items": [{"summary": "This spot is popular", "type": "general", "reasonName": "globalInteractionReason"}]}, "venue": {"id": "4a36f484f964a5200f9e1fe3", "name": "Market District Supermarket", "location": {"address": "5550 Centre Ave", "crossStreet": "at S Negley Ave", "lat": 40.4566178038739, "lng": -79.93470131513821, "labeledLatLngs": [{"label": "display", "lat": 40.4566178038739, "lng": -79.93470131513821}], "distance": 387, "postalCode": "15232", "cc": "US", "city": "Pittsburgh", "state": "PA", "country": "United States", "formattedAddress": ["5550 Centre Ave (at S Negley Ave)", "Pittsburgh, PA 15232", "United States"]}, "categories": [{"id": "52f2ab2ebcbc57f1066b8b46", "name": "Supermarket", "pluralName": "Supermarkets", "shortName": "Supermarket", "icon": {"prefix": "https://ss3.4sqi.net/img/categories_v2/shops/food_grocery_", "suffix": ".png"}, "primary": true}], "photos": {"count": 0, "groups": []}}, "referralId": "e-0-4a36f484f964a5200f9e1fe3-1"}, {"reasons": {"count": 0, "items": [{"summary": "This spot is popular", "type": "general", "reasonName": "globalInteractionReason"}]}, "venue": {"id": "518ac466498ecfed3e8fc9a2", "name": "ALDI", "location": {"address": "Roup ave", "crossStreet": "Baum blvd", "lat": 40.454062529522126, "lng": -79.93188141269417, "labeledLatLngs": [{"label": "display", "lat": 40.454062529522126, "lng": -79.93188141269417}], "distance": 437, "cc": "US", "city": "Pittsburgh", "state": "PA", "country": "United States", "formattedAddress": ["Roup ave (Baum blvd)", "Pittsburgh, PA", "United States"]}, "categories": [{"id": "52f2ab2ebcbc57f1066b8b46", "name": "Supermarket", "pluralName": "Supermarkets", "shortName": "Supermarket", "icon": {"prefix": "https://ss3.4sqi.net/img/categories_v2/shops/food_grocery_", "suffix": ".png"}, "primary": true}], "photos": {"count": 0, "groups": []}}, "referralId": "e-0-518ac466498ecfed3e8fc9a2-2"}]}]}}, "-79.94870999999999|40.451859999999996": {"meta": {"code": 200, "requestId": "5f13f4ed73700071f265bce2"}, "response": {"warning": {"text": "There aren't a lot of results near you. Try something more general, reset your filters, or expand the search area."}, "headerLocation": "Shadyside", "headerFullLocation": "Shadyside, Pittsburgh", "headerLocationGranularity": "neighborhood", "query": "supermarket", "totalResults": 0, "suggestedBounds": {"ne": {"lat": 40.46086000900001, "lng": -79.93690477121127}, "sw": {"lat": 40.442859990999985, "lng": -79.96051522878871}}, "groups": [{"type": "Recommended Places", "name": "recommended", "items": []}]}}, "-79.94641999999999|40.452039899999995": {"meta": {"code": 200, "requestId": "5f13f4651d35135e2a87d75f"}, "response": {"warning": {"text": "There aren't a lot of results near you. Try something more general, reset your filters, or expand the search area."}, "headerLocation": "Shadyside", "headerFullLocation": "Shadyside, Pittsburgh", "headerLocationGranularity": "neighborhood", "query": "supermarket", "totalResults": 0, "suggestedBounds": {"ne": {"lat": 40.46103990900001, "lng": -79.93461473960708}, "sw": {"lat": 40.443039890999984, "lng": -79.9582252603929}}, "groups": [{"type": "Recommended Places", "name": "recommended", "items": []}]}}, "-79.94901999999999|40.45043": {"meta": {"code": 200, "requestId": "5f13f45b375f6d7e0fcb5a34"}, "response": {"warning": {"text": "There aren't a lot of results near you. Try something more general, reset your filters, or expand the search area."}, "headerLocation": "North Oakland", "headerFullLocation": "North Oakland, Pittsburgh", "headerLocationGranularity": "neighborhood", "query": "supermarket", "totalResults": 0, "suggestedBounds": {"ne": {"lat": 40.45943000900001, "lng": -79.93721502241851}, "sw": {"lat": 40.441429990999985, "lng": -79.96082497758147}}, "groups": [{"type": "Recommended Places", "name": "recommended", "items": []}]}}, "-79.94866999999999|40.45098": {"meta": {"code": 200, "requestId": "5f13f4443c1ce60ee8632133"}, "response": {"warning": {"text": "There aren't a lot of results near you. Try something more general, reset your filters, or expand the search area."}, "headerLocation": "North Oakland", "headerFullLocation": "North Oakland, Pittsburgh", "headerLocationGranularity": "neighborhood", "query": "supermarket", "totalResults": 0, "suggestedBounds": {"ne": {"lat": 40.45998000900001, "lng": -79.93686492580248}, "sw": {"lat": 40.44197999099999, "lng": -79.9604750741975}}, "groups": [{"type": "Recommended Places", "name": "recommended", "items": []}]}}, "-79.94501|40.45197": {"meta": {"code": 200, "requestId": "5f13f3b9f8ec05702ae5e8ee"}, "response": {"warning": {"text": "There aren't a lot of results near you. Try something more general, reset your filters, or expand the search area."}, "headerLocation": "Shadyside", "headerFullLocation": "Shadyside, Pittsburgh", "headerLocationGranularity": "neighborhood", "query": "supermarket", "totalResults": 0, "suggestedBounds": {"ne": {"lat": 40.460970009000015, "lng": -79.9332047518869}, "sw": {"lat": 40.44296999099999, "lng": -79.95681524811309}}, "groups": [{"type": "Recommended Places", "name": "recommended", "items": []}]}}, "-79.94277|40.452740000000006": {"meta": {"code": 200, "requestId": "5f13f52058c1981045a97719"}, "response": {"warning": {"text": "There aren't a lot of results near you. Try something more general, reset your filters, or expand the search area."}, "headerLocation": "Shadyside", "headerFullLocation": "Shadyside, Pittsburgh", "headerLocationGranularity": "neighborhood", "query": "supermarket", "totalResults": 3, "suggestedBounds": {"ne": {"lat": 40.46174000900002, "lng": -79.93096461661325}, "sw": {"lat": 40.443739990999994, "lng": -79.95457538338674}}, "groups": [{"type": "Recommended Places", "name": "recommended", "items": [{"reasons": {"count": 0, "items": [{"summary": "This spot is popular", "type": "general", "reasonName": "globalInteractionReason"}]}, "venue": {"id": "518a8159498e5779f0ce0941", "name": "ALDI", "location": {"address": "5631 Baum Blvd", "crossStreet": "Roup Avenue", "lat": 40.4586334, "lng": -79.9350286, "labeledLatLngs": [{"label": "display", "lat": 40.4586334, "lng": -79.9350286}, {"label": "entrance", "lat": 40.458103, "lng": -79.934937}], "distance": 927, "postalCode": "15206", "cc": "US", "city": "Pittsburgh", "state": "PA", "country": "United States", "formattedAddress": ["5631 Baum Blvd (Roup Avenue)", "Pittsburgh, PA 15206", "United States"]}, "categories": [{"id": "4bf58dd8d48988d118951735", "name": "Grocery Store", "pluralName": "Grocery Stores", "shortName": "Grocery Store", "icon": {"prefix": "https://ss3.4sqi.net/img/categories_v2/shops/food_grocery_", "suffix": ".png"}, "primary": true}], "photos": {"count": 0, "groups": []}}, "referralId": "e-0-518a8159498e5779f0ce0941-0"}, {"reasons": {"count": 0, "items": [{"summary": "This spot is popular", "type": "general", "reasonName": "globalInteractionReason"}]}, "venue": {"id": "4a36f484f964a5200f9e1fe3", "name": "Market District Supermarket", "location": {"address": "5550 Centre Ave", "crossStreet": "at S Negley Ave", "lat": 40.4566178038739, "lng": -79.93470131513821, "labeledLatLngs": [{"label": "display", "lat": 40.4566178038739, "lng": -79.93470131513821}], "distance": 808, "postalCode": "15232", "cc": "US", "city": "Pittsburgh", "state": "PA", "country": "United States", "formattedAddress": ["5550 Centre Ave (at S Negley Ave)", "Pittsburgh, PA 15232", "United States"]}, "categories": [{"id": "52f2ab2ebcbc57f1066b8b46", "name": "Supermarket", "pluralName": "Supermarkets", "shortName": "Supermarket", "icon": {"prefix": "https://ss3.4sqi.net/img/categories_v2/shops/food_grocery_", "suffix": ".png"}, "primary": true}], "photos": {"count": 0, "groups": []}}, "referralId": "e-0-4a36f484f964a5200f9e1fe3-1"}, {"reasons": {"count": 0, "items": [{"summary": "This spot is popular", "type": "general", "reasonName": "globalInteractionReason"}]}, "venue": {"id": "518ac466498ecfed3e8fc9a2", "name": "ALDI", "location": {"address": "Roup ave", "crossStreet": "Baum blvd", "lat": 40.454062529522126, "lng": -79.93188141269417, "labeledLatLngs": [{"label": "display", "lat": 40.454062529522126, "lng": -79.93188141269417}], "distance": 934, "cc": "US", "city": "Pittsburgh", "state": "PA", "country": "United States", "formattedAddress": ["Roup ave (Baum blvd)", "Pittsburgh, PA", "United States"]}, "categories": [{"id": "52f2ab2ebcbc57f1066b8b46", "name": "Supermarket", "pluralName": "Supermarkets", "shortName": "Supermarket", "icon": {"prefix": "https://ss3.4sqi.net/img/categories_v2/shops/food_grocery_", "suffix": ".png"}, "primary": true}], "photos": {"count": 0, "groups": []}}, "referralId": "e-0-518ac466498ecfed3e8fc9a2-2"}]}]}}, "-79.94105|40.452020000000005": {"meta": {"code": 200, "requestId": "5f13f460375f6d7e0fcb658f"}, "response": {"warning": {"text": "There aren't a lot of results near you. Try something more general, reset your filters, or expand the search area."}, "headerLocation": "Shadyside", "headerFullLocation": "Shadyside, Pittsburgh", "headerLocationGranularity": "neighborhood", "query": "supermarket", "totalResults": 3, "suggestedBounds": {"ne": {"lat": 40.461020009000016, "lng": -79.92924474310307}, "sw": {"lat": 40.44301999099999, "lng": -79.95285525689694}}, "groups": [{"type": "Recommended Places", "name": "recommended", "items": [{"reasons": {"count": 0, "items": [{"summary": "This spot is popular", "type": "general", "reasonName": "globalInteractionReason"}]}, "venue": {"id": "518a8159498e5779f0ce0941", "name": "ALDI", "location": {"address": "5631 Baum Blvd", "crossStreet": "Roup Avenue", "lat": 40.4586334, "lng": -79.9350286, "labeledLatLngs": [{"label": "display", "lat": 40.4586334, "lng": -79.9350286}, {"label": "entrance", "lat": 40.458103, "lng": -79.934937}], "distance": 895, "postalCode": "15206", "cc": "US", "city": "Pittsburgh", "state": "PA", "country": "United States", "formattedAddress": ["5631 Baum Blvd (Roup Avenue)", "Pittsburgh, PA 15206", "United States"]}, "categories": [{"id": "4bf58dd8d48988d118951735", "name": "Grocery Store", "pluralName": "Grocery Stores", "shortName": "Grocery Store", "icon": {"prefix": "https://ss3.4sqi.net/img/categories_v2/shops/food_grocery_", "suffix": ".png"}, "primary": true}], "photos": {"count": 0, "groups": []}}, "referralId": "e-0-518a8159498e5779f0ce0941-0"}, {"reasons": {"count": 0, "items": [{"summary": "This spot is popular", "type": "general", "reasonName": "globalInteractionReason"}]}, "venue": {"id": "4a36f484f964a5200f9e1fe3", "name": "Market District Supermarket", "location": {"address": "5550 Centre Ave", "crossStreet": "at S Negley Ave", "lat": 40.4566178038739, "lng": -79.93470131513821, "labeledLatLngs": [{"label": "display", "lat": 40.4566178038739, "lng": -79.93470131513821}], "distance": 742, "postalCode": "15232", "cc": "US", "city": "Pittsburgh", "state": "PA", "country": "United States", "formattedAddress": ["5550 Centre Ave (at S Negley Ave)", "Pittsburgh, PA 15232", "United States"]}, "categories": [{"id": "52f2ab2ebcbc57f1066b8b46", "name": "Supermarket", "pluralName": "Supermarkets", "shortName": "Supermarket", "icon": {"prefix": "https://ss3.4sqi.net/img/categories_v2/shops/food_grocery_", "suffix": ".png"}, "primary": true}], "photos": {"count": 0, "groups": []}}, "referralId": "e-0-4a36f484f964a5200f9e1fe3-1"}, {"reasons": {"count": 0, "items": [{"summary": "This spot is popular", "type": "general", "reasonName": "globalInteractionReason"}]}, "venue": {"id": "518ac466498ecfed3e8fc9a2", "name": "ALDI", "location": {"address": "Roup ave", "crossStreet": "Baum blvd", "lat": 40.454062529522126, "lng": -79.93188141269417, "labeledLatLngs": [{"label": "display", "lat": 40.454062529522126, "lng": -79.93188141269417}], "distance": 809, "cc": "US", "city": "Pittsburgh", "state": "PA", "country": "United States", "formattedAddress": ["Roup ave (Baum blvd)", "Pittsburgh, PA", "United States"]}, "categories": [{"id": "52f2ab2ebcbc57f1066b8b46", "name": "Supermarket", "pluralName": "Supermarkets", "shortName": "Supermarket", "icon": {"prefix": "https://ss3.4sqi.net/img/categories_v2/shops/food_grocery_", "suffix": ".png"}, "primary": true}], "photos": {"count": 0, "groups": []}}, "referralId": "e-0-518ac466498ecfed3e8fc9a2-2"}]}]}}, "-79.93897|40.45236": {"meta": {"code": 200, "requestId": "5f13f515b03989534b4f6bdf"}, "response": {"warning": {"text": "There aren't a lot of results near you. Try something more general, reset your filters, or expand the search area."}, "headerLocation": "Shadyside", "headerFullLocation": "Shadyside, Pittsburgh", "headerLocationGranularity": "neighborhood", "query": "supermarket", "totalResults": 3, "suggestedBounds": {"ne": {"lat": 40.46136000900001, "lng": -79.92716468337234}, "sw": {"lat": 40.44335999099999, "lng": -79.95077531662766}}, "groups": [{"type": "Recommended Places", "name": "recommended", "items": [{"reasons": {"count": 0, "items": [{"summary": "This spot is popular", "type": "general", "reasonName": "globalInteractionReason"}]}, "venue": {"id": "518a8159498e5779f0ce0941", "name": "ALDI", "location": {"address": "5631 Baum Blvd", "crossStreet": "Roup Avenue", "lat": 40.4586334, "lng": -79.9350286, "labeledLatLngs": [{"label": "display", "lat": 40.4586334, "lng": -79.9350286}, {"label": "entrance", "lat": 40.458103, "lng": -79.934937}], "distance": 774, "postalCode": "15206", "cc": "US", "city": "Pittsburgh", "state": "PA", "country": "United States", "formattedAddress": ["5631 Baum Blvd (Roup Avenue)", "Pittsburgh, PA 15206", "United States"]}, "categories": [{"id": "4bf58dd8d48988d118951735", "name": "Grocery Store", "pluralName": "Grocery Stores", "shortName": "Grocery Store", "icon": {"prefix": "https://ss3.4sqi.net/img/categories_v2/shops/food_grocery_", "suffix": ".png"}, "primary": true}], "photos": {"count": 0, "groups": []}}, "referralId": "e-0-518a8159498e5779f0ce0941-0"}, {"reasons": {"count": 0, "items": [{"summary": "This spot is popular", "type": "general", "reasonName": "globalInteractionReason"}]}, "venue": {"id": "4a36f484f964a5200f9e1fe3", "name": "Market District Supermarket", "location": {"address": "5550 Centre Ave", "crossStreet": "at S Negley Ave", "lat": 40.4566178038739, "lng": -79.93470131513821, "labeledLatLngs": [{"label": "display", "lat": 40.4566178038739, "lng": -79.93470131513821}], "distance": 596, "postalCode": "15232", "cc": "US", "city": "Pittsburgh", "state": "PA", "country": "United States", "formattedAddress": ["5550 Centre Ave (at S Negley Ave)", "Pittsburgh, PA 15232", "United States"]}, "categories": [{"id": "52f2ab2ebcbc57f1066b8b46", "name": "Supermarket", "pluralName": "Supermarkets", "shortName": "Supermarket", "icon": {"prefix": "https://ss3.4sqi.net/img/categories_v2/shops/food_grocery_", "suffix": ".png"}, "primary": true}], "photos": {"count": 0, "groups": []}}, "referralId": "e-0-4a36f484f964a5200f9e1fe3-1"}, {"reasons": {"count": 0, "items": [{"summary": "This spot is popular", "type": "general", "reasonName": "globalInteractionReason"}]}, "venue": {"id": "518ac466498ecfed3e8fc9a2", "name": "ALDI", "location": {"address": "Roup ave", "crossStreet": "Baum blvd", "lat": 40.454062529522126, "lng": -79.93188141269417, "labeledLatLngs": [{"label": "display", "lat": 40.454062529522126, "lng": -79.93188141269417}], "distance": 629, "cc": "US", "city": "Pittsburgh", "state": "PA", "country": "United States", "formattedAddress": ["Roup ave (Baum blvd)", "Pittsburgh, PA", "United States"]}, "categories": [{"id": "52f2ab2ebcbc57f1066b8b46", "name": "Supermarket", "pluralName": "Supermarkets", "shortName": "Supermarket", "icon": {"prefix": "https://ss3.4sqi.net/img/categories_v2/shops/food_grocery_", "suffix": ".png"}, "primary": true}], "photos": {"count": 0, "groups": []}}, "referralId": "e-0-518ac466498ecfed3e8fc9a2-2"}]}]}}, "-79.9355|40.45112": {"meta": {"code": 200, "requestId": "5f13f5635de8cc2b21e45fd2"}, "response": {"warning": {"text": "There aren't a lot of results near you. Try something more general, reset your filters, or expand the search area."}, "headerLocation": "Shadyside", "headerFullLocation": "Shadyside, Pittsburgh", "headerLocationGranularity": "neighborhood", "query": "supermarket", "totalResults": 3, "suggestedBounds": {"ne": {"lat": 40.460120009000015, "lng": -79.92369490120889}, "sw": {"lat": 40.44211999099999, "lng": -79.94730509879112}}, "groups": [{"type": "Recommended Places", "name": "recommended", "items": [{"reasons": {"count": 0, "items": [{"summary": "This spot is popular", "type": "general", "reasonName": "globalInteractionReason"}]}, "venue": {"id": "518a8159498e5779f0ce0941", "name": "ALDI", "location": {"address": "5631 Baum Blvd", "crossStreet": "Roup Avenue", "lat": 40.4586334, "lng": -79.9350286, "labeledLatLngs": [{"label": "display", "lat": 40.4586334, "lng": -79.9350286}, {"label": "entrance", "lat": 40.458103, "lng": -79.934937}], "distance": 837, "postalCode": "15206", "cc": "US", "city": "Pittsburgh", "state": "PA", "country": "United States", "formattedAddress": ["5631 Baum Blvd (Roup Avenue)", "Pittsburgh, PA 15206", "United States"]}, "categories": [{"id": "4bf58dd8d48988d118951735", "name": "Grocery Store", "pluralName": "Grocery Stores", "shortName": "Grocery Store", "icon": {"prefix": "https://ss3.4sqi.net/img/categories_v2/shops/food_grocery_", "suffix": ".png"}, "primary": true}], "photos": {"count": 0, "groups": []}}, "referralId": "e-0-518a8159498e5779f0ce0941-0"}, {"reasons": {"count": 0, "items": [{"summary": "This spot is popular", "type": "general", "reasonName": "globalInteractionReason"}]}, "venue": {"id": "4a36f484f964a5200f9e1fe3", "name": "Market District Supermarket", "location": {"address": "5550 Centre Ave", "crossStreet": "at S Negley Ave", "lat": 40.4566178038739, "lng": -79.93470131513821, "labeledLatLngs": [{"label": "display", "lat": 40.4566178038739, "lng": -79.93470131513821}], "distance": 615, "postalCode": "15232", "cc": "US", "city": "Pittsburgh", "state": "PA", "country": "United States", "formattedAddress": ["5550 Centre Ave (at S Negley Ave)", "Pittsburgh, PA 15232", "United States"]}, "categories": [{"id": "52f2ab2ebcbc57f1066b8b46", "name": "Supermarket", "pluralName": "Supermarkets", "shortName": "Supermarket", "icon": {"prefix": "https://ss3.4sqi.net/img/categories_v2/shops/food_grocery_", "suffix": ".png"}, "primary": true}], "photos": {"count": 0, "groups": []}}, "referralId": "e-0-4a36f484f964a5200f9e1fe3-1"}, {"reasons": {"count": 0, "items": [{"summary": "This spot is popular", "type": "general", "reasonName": "globalInteractionReason"}]}, "venue": {"id": "518ac466498ecfed3e8fc9a2", "name": "ALDI", "location": {"address": "Roup ave", "crossStreet": "Baum blvd", "lat": 40.454062529522126, "lng": -79.93188141269417, "labeledLatLngs": [{"label": "display", "lat": 40.454062529522126, "lng": -79.93188141269417}], "distance": 448, "cc": "US", "city": "Pittsburgh", "state": "PA", "country": "United States", "formattedAddress": ["Roup ave (Baum blvd)", "Pittsburgh, PA", "United States"]}, "categories": [{"id": "52f2ab2ebcbc57f1066b8b46", "name": "Supermarket", "pluralName": "Supermarkets", "shortName": "Supermarket", "icon": {"prefix": "https://ss3.4sqi.net/img/categories_v2/shops/food_grocery_", "suffix": ".png"}, "primary": true}], "photos": {"count": 0, "groups": []}}, "referralId": "e-0-518ac466498ecfed3e8fc9a2-2"}]}]}}, "-79.93571999999999|40.45145": {"meta": {"code": 200, "requestId": "5f13f39d88f1c343fd1fe3cb"}, "response": {"warning": {"text": "There aren't a lot of results near you. Try something more general, reset your filters, or expand the search area."}, "headerLocation": "Shadyside", "headerFullLocation": "Shadyside, Pittsburgh", "headerLocationGranularity": "neighborhood", "query": "supermarket", "totalResults": 3, "suggestedBounds": {"ne": {"lat": 40.46045000900001, "lng": -79.92391484323757}, "sw": {"lat": 40.44244999099999, "lng": -79.94752515676241}}, "groups": [{"type": "Recommended Places", "name": "recommended", "items": [{"reasons": {"count": 0, "items": [{"summary": "This spot is popular", "type": "general", "reasonName": "globalInteractionReason"}]}, "venue": {"id": "518a8159498e5779f0ce0941", "name": "ALDI", "location": {"address": "5631 Baum Blvd", "crossStreet": "Roup Avenue", "lat": 40.4586334, "lng": -79.9350286, "labeledLatLngs": [{"label": "display", "lat": 40.4586334, "lng": -79.9350286}, {"label": "entrance", "lat": 40.458103, "lng": -79.934937}], "distance": 801, "postalCode": "15206", "cc": "US", "city": "Pittsburgh", "state": "PA", "country": "United States", "formattedAddress": ["5631 Baum Blvd (Roup Avenue)", "Pittsburgh, PA 15206", "United States"]}, "categories": [{"id": "4bf58dd8d48988d118951735", "name": "Grocery Store", "pluralName": "Grocery Stores", "shortName": "Grocery Store", "icon": {"prefix": "https://ss3.4sqi.net/img/categories_v2/shops/food_grocery_", "suffix": ".png"}, "primary": true}], "photos": {"count": 0, "groups": []}}, "referralId": "e-0-518a8159498e5779f0ce0941-0"}, {"reasons": {"count": 0, "items": [{"summary": "This spot is popular", "type": "general", "reasonName": "globalInteractionReason"}]}, "venue": {"id": "4a36f484f964a5200f9e1fe3", "name": "Market District Supermarket", "location": {"address": "5550 Centre Ave", "crossStreet": "at S Negley Ave", "lat": 40.4566178038739, "lng": -79.93470131513821, "labeledLatLngs": [{"label": "display", "lat": 40.4566178038739, "lng": -79.93470131513821}], "distance": 581, "postalCode": "15232", "cc": "US", "city": "Pittsburgh", "state": "PA", "country": "United States", "formattedAddress": ["5550 Centre Ave (at S Negley Ave)", "Pittsburgh, PA 15232", "United States"]}, "categories": [{"id": "52f2ab2ebcbc57f1066b8b46", "name": "Supermarket", "pluralName": "Supermarkets", "shortName": "Supermarket", "icon": {"prefix": "https://ss3.4sqi.net/img/categories_v2/shops/food_grocery_", "suffix": ".png"}, "primary": true}], "photos": {"count": 0, "groups": []}}, "referralId": "e-0-4a36f484f964a5200f9e1fe3-1"}, {"reasons": {"count": 0, "items": [{"summary": "This spot is popular", "type": "general", "reasonName": "globalInteractionReason"}]}, "venue": {"id": "518ac466498ecfed3e8fc9a2", "name": "ALDI", "location": {"address": "Roup ave", "crossStreet": "Baum blvd", "lat": 40.454062529522126, "lng": -79.93188141269417, "labeledLatLngs": [{"label": "display", "lat": 40.454062529522126, "lng": -79.93188141269417}], "distance": 436, "cc": "US", "city": "Pittsburgh", "state": "PA", "country": "United States", "formattedAddress": ["Roup ave (Baum blvd)", "Pittsburgh, PA", "United States"]}, "categories": [{"id": "52f2ab2ebcbc57f1066b8b46", "name": "Supermarket", "pluralName": "Supermarkets", "shortName": "Supermarket", "icon": {"prefix": "https://ss3.4sqi.net/img/categories_v2/shops/food_grocery_", "suffix": ".png"}, "primary": true}], "photos": {"count": 0, "groups": []}}, "referralId": "e-0-518ac466498ecfed3e8fc9a2-2"}]}]}}, "-79.93532990000001|40.45235": {"meta": {"code": 200, "requestId": "5f13f601a536c57dc6a94fbc"}, "response": {"warning": {"text": "There aren't a lot of results near you. Try something more general, reset your filters, or expand the search area."}, "headerLocation": "Shadyside", "headerFullLocation": "Shadyside, Pittsburgh", "headerLocationGranularity": "neighborhood", "query": "supermarket", "totalResults": 3, "suggestedBounds": {"ne": {"lat": 40.461350009000014, "lng": -79.92352458512916}, "sw": {"lat": 40.44334999099999, "lng": -79.94713521487087}}, "groups": [{"type": "Recommended Places", "name": "recommended", "items": [{"reasons": {"count": 0, "items": [{"summary": "This spot is popular", "type": "general", "reasonName": "globalInteractionReason"}]}, "venue": {"id": "518a8159498e5779f0ce0941", "name": "ALDI", "location": {"address": "5631 Baum Blvd", "crossStreet": "Roup Avenue", "lat": 40.4586334, "lng": -79.9350286, "labeledLatLngs": [{"label": "display", "lat": 40.4586334, "lng": -79.9350286}, {"label": "entrance", "lat": 40.458103, "lng": -79.934937}], "distance": 699, "postalCode": "15206", "cc": "US", "city": "Pittsburgh", "state": "PA", "country": "United States", "formattedAddress": ["5631 Baum Blvd (Roup Avenue)", "Pittsburgh, PA 15206", "United States"]}, "categories": [{"id": "4bf58dd8d48988d118951735", "name": "Grocery Store", "pluralName": "Grocery Stores", "shortName": "Grocery Store", "icon": {"prefix": "https://ss3.4sqi.net/img/categories_v2/shops/food_grocery_", "suffix": ".png"}, "primary": true}], "photos": {"count": 0, "groups": []}}, "referralId": "e-0-518a8159498e5779f0ce0941-0"}, {"reasons": {"count": 0, "items": [{"summary": "This spot is popular", "type": "general", "reasonName": "globalInteractionReason"}]}, "venue": {"id": "4a36f484f964a5200f9e1fe3", "name": "Market District Supermarket", "location": {"address": "5550 Centre Ave", "crossStreet": "at S Negley Ave", "lat": 40.4566178038739, "lng": -79.93470131513821, "labeledLatLngs": [{"label": "display", "lat": 40.4566178038739, "lng": -79.93470131513821}], "distance": 478, "postalCode": "15232", "cc": "US", "city": "Pittsburgh", "state": "PA", "country": "United States", "formattedAddress": ["5550 Centre Ave (at S Negley Ave)", "Pittsburgh, PA 15232", "United States"]}, "categories": [{"id": "52f2ab2ebcbc57f1066b8b46", "name": "Supermarket", "pluralName": "Supermarkets", "shortName": "Supermarket", "icon": {"prefix": "https://ss3.4sqi.net/img/categories_v2/shops/food_grocery_", "suffix": ".png"}, "primary": true}], "photos": {"count": 0, "groups": []}}, "referralId": "e-0-4a36f484f964a5200f9e1fe3-1"}, {"reasons": {"count": 0, "items": [{"summary": "This spot is popular", "type": "general", "reasonName": "globalInteractionReason"}]}, "venue": {"id": "518ac466498ecfed3e8fc9a2", "name": "ALDI", "location": {"address": "Roup ave", "crossStreet": "Baum blvd", "lat": 40.454062529522126, "lng": -79.93188141269417, "labeledLatLngs": [{"label": "display", "lat": 40.454062529522126, "lng": -79.93188141269417}], "distance": 348, "cc": "US", "city": "Pittsburgh", "state": "PA", "country": "United States", "formattedAddress": ["Roup ave (Baum blvd)", "Pittsburgh, PA", "United States"]}, "categories": [{"id": "52f2ab2ebcbc57f1066b8b46", "name": "Supermarket", "pluralName": "Supermarkets", "shortName": "Supermarket", "icon": {"prefix": "https://ss3.4sqi.net/img/categories_v2/shops/food_grocery_", "suffix": ".png"}, "primary": true}], "photos": {"count": 0, "groups": []}}, "referralId": "e-0-518ac466498ecfed3e8fc9a2-2"}]}]}}, "-79.93401999999999|40.45197": {"meta": {"code": 200, "requestId": "5f13f5290af06e78b98326c4"}, "response": {"warning": {"text": "There aren't a lot of results near you. Try something more general, reset your filters, or expand the search area."}, "headerLocation": "Shadyside", "headerFullLocation": "Shadyside, Pittsburgh", "headerLocationGranularity": "neighborhood", "query": "supermarket", "totalResults": 3, "suggestedBounds": {"ne": {"lat": 40.460970009000015, "lng": -79.9222147518869}, "sw": {"lat": 40.44296999099999, "lng": -79.94582524811308}}, "groups": [{"type": "Recommended Places", "name": "recommended", "items": [{"reasons": {"count": 0, "items": [{"summary": "This spot is popular", "type": "general", "reasonName": "globalInteractionReason"}]}, "venue": {"id": "518a8159498e5779f0ce0941", "name": "ALDI", "location": {"address": "5631 Baum Blvd", "crossStreet": "Roup Avenue", "lat": 40.4586334, "lng": -79.9350286, "labeledLatLngs": [{"label": "display", "lat": 40.4586334, "lng": -79.9350286}, {"label": "entrance", "lat": 40.458103, "lng": -79.934937}], "distance": 746, "postalCode": "15206", "cc": "US", "city": "Pittsburgh", "state": "PA", "country": "United States", "formattedAddress": ["5631 Baum Blvd (Roup Avenue)", "Pittsburgh, PA 15206", "United States"]}, "categories": [{"id": "4bf58dd8d48988d118951735", "name": "Grocery Store", "pluralName": "Grocery Stores", "shortName": "Grocery Store", "icon": {"prefix": "https://ss3.4sqi.net/img/categories_v2/shops/food_grocery_", "suffix": ".png"}, "primary": true}], "photos": {"count": 0, "groups": []}}, "referralId": "e-0-518a8159498e5779f0ce0941-0"}, {"reasons": {"count": 0, "items": [{"summary": "This spot is popular", "type": "general", "reasonName": "globalInteractionReason"}]}, "venue": {"id": "4a36f484f964a5200f9e1fe3", "name": "Market District Supermarket", "location": {"address": "5550 Centre Ave", "crossStreet": "at S Negley Ave", "lat": 40.4566178038739, "lng": -79.93470131513821, "labeledLatLngs": [{"label": "display", "lat": 40.4566178038739, "lng": -79.93470131513821}], "distance": 520, "postalCode": "15232", "cc": "US", "city": "Pittsburgh", "state": "PA", "country": "United States", "formattedAddress": ["5550 Centre Ave (at S Negley Ave)", "Pittsburgh, PA 15232", "United States"]}, "categories": [{"id": "52f2ab2ebcbc57f1066b8b46", "name": "Supermarket", "pluralName": "Supermarkets", "shortName": "Supermarket", "icon": {"prefix": "https://ss3.4sqi.net/img/categories_v2/shops/food_grocery_", "suffix": ".png"}, "primary": true}], "photos": {"count": 0, "groups": []}}, "referralId": "e-0-4a36f484f964a5200f9e1fe3-1"}, {"reasons": {"count": 0, "items": [{"summary": "This spot is popular", "type": "general", "reasonName": "globalInteractionReason"}]}, "venue": {"id": "518ac466498ecfed3e8fc9a2", "name": "ALDI", "location": {"address": "Roup ave", "crossStreet": "Baum blvd", "lat": 40.454062529522126, "lng": -79.93188141269417, "labeledLatLngs": [{"label": "display", "lat": 40.454062529522126, "lng": -79.93188141269417}], "distance": 295, "cc": "US", "city": "Pittsburgh", "state": "PA", "country": "United States", "formattedAddress": ["Roup ave (Baum blvd)", "Pittsburgh, PA", "United States"]}, "categories": [{"id": "52f2ab2ebcbc57f1066b8b46", "name": "Supermarket", "pluralName": "Supermarkets", "shortName": "Supermarket", "icon": {"prefix": "https://ss3.4sqi.net/img/categories_v2/shops/food_grocery_", "suffix": ".png"}, "primary": true}], "photos": {"count": 0, "groups": []}}, "referralId": "e-0-518ac466498ecfed3e8fc9a2-2"}]}]}}, "-79.94915|40.44767": {"meta": {"code": 200, "requestId": "5f13f52b0af06e78b9832a84"}, "response": {"warning": {"text": "There aren't a lot of results near you. Try something more general, reset your filters, or expand the search area."}, "headerLocation": "North Oakland", "headerFullLocation": "North Oakland, Pittsburgh", "headerLocationGranularity": "neighborhood", "query": "supermarket", "totalResults": 0, "suggestedBounds": {"ne": {"lat": 40.456670009000014, "lng": -79.93734550721501}, "sw": {"lat": 40.43866999099999, "lng": -79.96095449278499}}, "groups": [{"type": "Recommended Places", "name": "recommended", "items": []}]}}, "-79.94821|40.448659899999996": {"meta": {"code": 200, "requestId": "5f13f4fe2ac7fd1000496b88"}, "response": {"warning": {"text": "There aren't a lot of results near you. Try something more general, reset your filters, or expand the search area."}, "headerLocation": "North Oakland", "headerFullLocation": "North Oakland, Pittsburgh", "headerLocationGranularity": "neighborhood", "query": "supermarket", "totalResults": 0, "suggestedBounds": {"ne": {"lat": 40.45765990900001, "lng": -79.93640533334592}, "sw": {"lat": 40.439659890999984, "lng": -79.96001466665409}}, "groups": [{"type": "Recommended Places", "name": "recommended", "items": []}]}}, "-79.94838|40.44907": {"meta": {"code": 200, "requestId": "5f13f5042ac7fd100049797b"}, "response": {"warning": {"text": "There aren't a lot of results near you. Try something more general, reset your filters, or expand the search area."}, "headerLocation": "North Oakland", "headerFullLocation": "North Oakland, Pittsburgh", "headerLocationGranularity": "neighborhood", "query": "supermarket", "totalResults": 0, "suggestedBounds": {"ne": {"lat": 40.45807000900001, "lng": -79.93657526131214}, "sw": {"lat": 40.44006999099999, "lng": -79.96018473868786}}, "groups": [{"type": "Recommended Places", "name": "recommended", "items": []}]}}, "-79.94732990000001|40.44798": {"meta": {"code": 200, "requestId": "5f13f45e3c1ce60ee8635ca4"}, "response": {"warning": {"text": "There aren't a lot of results near you. Try something more general, reset your filters, or expand the search area."}, "headerLocation": "North Oakland", "headerFullLocation": "North Oakland, Pittsburgh", "headerLocationGranularity": "neighborhood", "query": "supermarket", "totalResults": 0, "suggestedBounds": {"ne": {"lat": 40.45698000900001, "lng": -79.9355253527666}, "sw": {"lat": 40.43897999099999, "lng": -79.95913444723342}}, "groups": [{"type": "Recommended Places", "name": "recommended", "items": []}]}}, "-79.94199990000001|40.4482": {"meta": {"code": 200, "requestId": "5f13f39079fcaa78939706f2"}, "response": {"warning": {"text": "There aren't a lot of results near you. Try something more general, reset your filters, or expand the search area."}, "headerLocation": "Shadyside", "headerFullLocation": "Shadyside, Pittsburgh", "headerLocationGranularity": "neighborhood", "query": "supermarket", "totalResults": 0, "suggestedBounds": {"ne": {"lat": 40.45720000900001, "lng": -79.93019531412526}, "sw": {"lat": 40.43919999099999, "lng": -79.95380448587477}}, "groups": [{"type": "Recommended Places", "name": "recommended", "items": []}]}}, "-79.94223000000001|40.44773": {"meta": {"code": 200, "requestId": "5f13f3d3f8ec05702ae626d4"}, "response": {"warning": {"text": "There aren't a lot of results near you. Try something more general, reset your filters, or expand the search area."}, "headerLocation": "Shadyside", "headerFullLocation": "Shadyside, Pittsburgh", "headerLocationGranularity": "neighborhood", "query": "supermarket", "totalResults": 0, "suggestedBounds": {"ne": {"lat": 40.45673000900001, "lng": -79.93042549667668}, "sw": {"lat": 40.43872999099999, "lng": -79.95403450332334}}, "groups": [{"type": "Recommended Places", "name": "recommended", "items": []}]}}, "-79.93424|40.45017": {"meta": {"code": 200, "requestId": "5f13f594bd9c5b4d0026dc30"}, "response": {"warning": {"text": "There aren't a lot of results near you. Try something more general, reset your filters, or expand the search area."}, "headerLocation": "Shadyside", "headerFullLocation": "Shadyside, Pittsburgh", "headerLocationGranularity": "neighborhood", "query": "supermarket", "totalResults": 3, "suggestedBounds": {"ne": {"lat": 40.45917000900001, "lng": -79.92243506809062}, "sw": {"lat": 40.44116999099999, "lng": -79.94604493190938}}, "groups": [{"type": "Recommended Places", "name": "recommended", "items": [{"reasons": {"count": 0, "items": [{"summary": "This spot is popular", "type": "general", "reasonName": "globalInteractionReason"}]}, "venue": {"id": "518a8159498e5779f0ce0941", "name": "ALDI", "location": {"address": "5631 Baum Blvd", "crossStreet": "Roup Avenue", "lat": 40.4586334, "lng": -79.9350286, "labeledLatLngs": [{"label": "display", "lat": 40.4586334, "lng": -79.9350286}, {"label": "entrance", "lat": 40.458103, "lng": -79.934937}], "distance": 944, "postalCode": "15206", "cc": "US", "city": "Pittsburgh", "state": "PA", "country": "United States", "formattedAddress": ["5631 Baum Blvd (Roup Avenue)", "Pittsburgh, PA 15206", "United States"]}, "categories": [{"id": "4bf58dd8d48988d118951735", "name": "Grocery Store", "pluralName": "Grocery Stores", "shortName": "Grocery Store", "icon": {"prefix": "https://ss3.4sqi.net/img/categories_v2/shops/food_grocery_", "suffix": ".png"}, "primary": true}], "photos": {"count": 0, "groups": []}}, "referralId": "e-0-518a8159498e5779f0ce0941-0"}, {"reasons": {"count": 0, "items": [{"summary": "This spot is popular", "type": "general", "reasonName": "globalInteractionReason"}]}, "venue": {"id": "4a36f484f964a5200f9e1fe3", "name": "Market District Supermarket", "location": {"address": "5550 Centre Ave", "crossStreet": "at S Negley Ave", "lat": 40.4566178038739, "lng": -79.93470131513821, "labeledLatLngs": [{"label": "display", "lat": 40.4566178038739, "lng": -79.93470131513821}], "distance": 718, "postalCode": "15232", "cc": "US", "city": "Pittsburgh", "state": "PA", "country": "United States", "formattedAddress": ["5550 Centre Ave (at S Negley Ave)", "Pittsburgh, PA 15232", "United States"]}, "categories": [{"id": "52f2ab2ebcbc57f1066b8b46", "name": "Supermarket", "pluralName": "Supermarkets", "shortName": "Supermarket", "icon": {"prefix": "https://ss3.4sqi.net/img/categories_v2/shops/food_grocery_", "suffix": ".png"}, "primary": true}], "photos": {"count": 0, "groups": []}}, "referralId": "e-0-4a36f484f964a5200f9e1fe3-1"}, {"reasons": {"count": 0, "items": [{"summary": "This spot is popular", "type": "general", "reasonName": "globalInteractionReason"}]}, "venue": {"id": "518ac466498ecfed3e8fc9a2", "name": "ALDI", "location": {"address": "Roup ave", "crossStreet": "Baum blvd", "lat": 40.454062529522126, "lng": -79.93188141269417, "labeledLatLngs": [{"label": "display", "lat": 40.454062529522126, "lng": -79.93188141269417}], "distance": 477, "cc": "US", "city": "Pittsburgh", "state": "PA", "country": "United States", "formattedAddress": ["Roup ave (Baum blvd)", "Pittsburgh, PA", "United States"]}, "categories": [{"id": "52f2ab2ebcbc57f1066b8b46", "name": "Supermarket", "pluralName": "Supermarkets", "shortName": "Supermarket", "icon": {"prefix": "https://ss3.4sqi.net/img/categories_v2/shops/food_grocery_", "suffix": ".png"}, "primary": true}], "photos": {"count": 0, "groups": []}}, "referralId": "e-0-518ac466498ecfed3e8fc9a2-2"}]}]}}, "-79.93293|40.449219899999996": {"meta": {"code": 200, "requestId": "5f13f4c274f373220c538e54"}, "response": {"warning": {"text": "There aren't a lot of results near you. Try something more general, reset your filters, or expand the search area."}, "headerLocation": "Shadyside", "headerFullLocation": "Shadyside, Pittsburgh", "headerLocationGranularity": "neighborhood", "query": "supermarket", "totalResults": 2, "suggestedBounds": {"ne": {"lat": 40.45821990900001, "lng": -79.92112523498194}, "sw": {"lat": 40.440219890999984, "lng": -79.94473476501805}}, "groups": [{"type": "Recommended Places", "name": "recommended", "items": [{"reasons": {"count": 0, "items": [{"summary": "This spot is popular", "type": "general", "reasonName": "globalInteractionReason"}]}, "venue": {"id": "4a36f484f964a5200f9e1fe3", "name": "Market District Supermarket", "location": {"address": "5550 Centre Ave", "crossStreet": "at S Negley Ave", "lat": 40.4566178038739, "lng": -79.93470131513821, "labeledLatLngs": [{"label": "display", "lat": 40.4566178038739, "lng": -79.93470131513821}], "distance": 837, "postalCode": "15232", "cc": "US", "city": "Pittsburgh", "state": "PA", "country": "United States", "formattedAddress": ["5550 Centre Ave (at S Negley Ave)", "Pittsburgh, PA 15232", "United States"]}, "categories": [{"id": "52f2ab2ebcbc57f1066b8b46", "name": "Supermarket", "pluralName": "Supermarkets", "shortName": "Supermarket", "icon": {"prefix": "https://ss3.4sqi.net/img/categories_v2/shops/food_grocery_", "suffix": ".png"}, "primary": true}], "photos": {"count": 0, "groups": []}}, "referralId": "e-0-4a36f484f964a5200f9e1fe3-0"}, {"reasons": {"count": 0, "items": [{"summary": "This spot is popular", "type": "general", "reasonName": "globalInteractionReason"}]}, "venue": {"id": "518ac466498ecfed3e8fc9a2", "name": "ALDI", "location": {"address": "Roup ave", "crossStreet": "Baum blvd", "lat": 40.454062529522126, "lng": -79.93188141269417, "labeledLatLngs": [{"label": "display", "lat": 40.454062529522126, "lng": -79.93188141269417}], "distance": 546, "cc": "US", "city": "Pittsburgh", "state": "PA", "country": "United States", "formattedAddress": ["Roup ave (Baum blvd)", "Pittsburgh, PA", "United States"]}, "categories": [{"id": "52f2ab2ebcbc57f1066b8b46", "name": "Supermarket", "pluralName": "Supermarkets", "shortName": "Supermarket", "icon": {"prefix": "https://ss3.4sqi.net/img/categories_v2/shops/food_grocery_", "suffix": ".png"}, "primary": true}], "photos": {"count": 0, "groups": []}}, "referralId": "e-0-518ac466498ecfed3e8fc9a2-1"}]}]}}, "-79.94740999999999|40.446059999999996": {"meta": {"code": 200, "requestId": "5f13f64b6b547043a15378d6"}, "response": {"warning": {"text": "There aren't a lot of results near you. Try something more general, reset your filters, or expand the search area."}, "headerLocation": "North Oakland", "headerFullLocation": "North Oakland, Pittsburgh", "headerLocationGranularity": "neighborhood", "query": "supermarket", "totalResults": 0, "suggestedBounds": {"ne": {"lat": 40.45506000900001, "lng": -79.93560578998192}, "sw": {"lat": 40.437059990999984, "lng": -79.95921421001806}}, "groups": [{"type": "Recommended Places", "name": "recommended", "items": []}]}}, "-79.93831|40.44741": {"meta": {"code": 200, "requestId": "5f13f55e8b53332abd9749fb"}, "response": {"warning": {"text": "There aren't a lot of results near you. Try something more general, reset your filters, or expand the search area."}, "headerLocation": "Pittsburgh", "headerFullLocation": "Pittsburgh", "headerLocationGranularity": "city", "query": "supermarket", "totalResults": 1, "suggestedBounds": {"ne": {"lat": 40.45641000900001, "lng": -79.92650555288078}, "sw": {"lat": 40.438409990999986, "lng": -79.95011444711922}}, "groups": [{"type": "Recommended Places", "name": "recommended", "items": [{"reasons": {"count": 0, "items": [{"summary": "This spot is popular", "type": "general", "reasonName": "globalInteractionReason"}]}, "venue": {"id": "518ac466498ecfed3e8fc9a2", "name": "ALDI", "location": {"address": "Roup ave", "crossStreet": "Baum blvd", "lat": 40.454062529522126, "lng": -79.93188141269417, "labeledLatLngs": [{"label": "display", "lat": 40.454062529522126, "lng": -79.93188141269417}], "distance": 919, "cc": "US", "city": "Pittsburgh", "state": "PA", "country": "United States", "formattedAddress": ["Roup ave (Baum blvd)", "Pittsburgh, PA", "United States"]}, "categories": [{"id": "52f2ab2ebcbc57f1066b8b46", "name": "Supermarket", "pluralName": "Supermarkets", "shortName": "Supermarket", "icon": {"prefix": "https://ss3.4sqi.net/img/categories_v2/shops/food_grocery_", "suffix": ".png"}, "primary": true}], "photos": {"count": 0, "groups": []}}, "referralId": "e-0-518ac466498ecfed3e8fc9a2-0"}]}]}}, "-79.93513|40.44531": {"meta": {"code": 200, "requestId": "5f13f55f8b53332abd974c65"}, "response": {"warning": {"text": "There aren't a lot of results near you. Try something more general, reset your filters, or expand the search area."}, "headerLocation": "Pittsburgh", "headerFullLocation": "Pittsburgh", "headerLocationGranularity": "city", "query": "supermarket", "totalResults": 0, "suggestedBounds": {"ne": {"lat": 40.45431000900001, "lng": -79.92332592169785}, "sw": {"lat": 40.43630999099999, "lng": -79.94693407830215}}, "groups": [{"type": "Recommended Places", "name": "recommended", "items": []}]}}, "-79.93415|40.44594": {"meta": {"code": 200, "requestId": "5f13f5875de8cc2b21e4b621"}, "response": {"warning": {"text": "There aren't a lot of results near you. Try something more general, reset your filters, or expand the search area."}, "headerLocation": "Pittsburgh", "headerFullLocation": "Pittsburgh", "headerLocationGranularity": "city", "query": "supermarket", "totalResults": 1, "suggestedBounds": {"ne": {"lat": 40.45494000900001, "lng": -79.92234581105681}, "sw": {"lat": 40.43693999099999, "lng": -79.94595418894319}}, "groups": [{"type": "Recommended Places", "name": "recommended", "items": [{"reasons": {"count": 0, "items": [{"summary": "This spot is popular", "type": "general", "reasonName": "globalInteractionReason"}]}, "venue": {"id": "518ac466498ecfed3e8fc9a2", "name": "ALDI", "location": {"address": "Roup ave", "crossStreet": "Baum blvd", "lat": 40.454062529522126, "lng": -79.93188141269417, "labeledLatLngs": [{"label": "display", "lat": 40.454062529522126, "lng": -79.93188141269417}], "distance": 924, "cc": "US", "city": "Pittsburgh", "state": "PA", "country": "United States", "formattedAddress": ["Roup ave (Baum blvd)", "Pittsburgh, PA", "United States"]}, "categories": [{"id": "52f2ab2ebcbc57f1066b8b46", "name": "Supermarket", "pluralName": "Supermarkets", "shortName": "Supermarket", "icon": {"prefix": "https://ss3.4sqi.net/img/categories_v2/shops/food_grocery_", "suffix": ".png"}, "primary": true}], "photos": {"count": 0, "groups": []}}, "referralId": "e-0-518ac466498ecfed3e8fc9a2-0"}]}]}}, "-79.93583000000001|40.4477": {"meta": {"code": 200, "requestId": "5f13f3e7f8ec05702ae6564c"}, "response": {"warning": {"text": "There aren't a lot of results near you. Try something more general, reset your filters, or expand the search area."}, "headerLocation": "Pittsburgh", "headerFullLocation": "Pittsburgh", "headerLocationGranularity": "city", "query": "supermarket", "totalResults": 2, "suggestedBounds": {"ne": {"lat": 40.45670000900001, "lng": -79.92402550194586}, "sw": {"lat": 40.438699990999986, "lng": -79.94763449805416}}, "groups": [{"type": "Recommended Places", "name": "recommended", "items": [{"reasons": {"count": 0, "items": [{"summary": "This spot is popular", "type": "general", "reasonName": "globalInteractionReason"}]}, "venue": {"id": "4a36f484f964a5200f9e1fe3", "name": "Market District Supermarket", "location": {"address": "5550 Centre Ave", "crossStreet": "at S Negley Ave", "lat": 40.4566178038739, "lng": -79.93470131513821, "labeledLatLngs": [{"label": "display", "lat": 40.4566178038739, "lng": -79.93470131513821}], "distance": 997, "postalCode": "15232", "cc": "US", "city": "Pittsburgh", "state": "PA", "country": "United States", "formattedAddress": ["5550 Centre Ave (at S Negley Ave)", "Pittsburgh, PA 15232", "United States"]}, "categories": [{"id": "52f2ab2ebcbc57f1066b8b46", "name": "Supermarket", "pluralName": "Supermarkets", "shortName": "Supermarket", "icon": {"prefix": "https://ss3.4sqi.net/img/categories_v2/shops/food_grocery_", "suffix": ".png"}, "primary": true}], "photos": {"count": 0, "groups": []}}, "referralId": "e-0-4a36f484f964a5200f9e1fe3-0"}, {"reasons": {"count": 0, "items": [{"summary": "This spot is popular", "type": "general", "reasonName": "globalInteractionReason"}]}, "venue": {"id": "518ac466498ecfed3e8fc9a2", "name": "ALDI", "location": {"address": "Roup ave", "crossStreet": "Baum blvd", "lat": 40.454062529522126, "lng": -79.93188141269417, "labeledLatLngs": [{"label": "display", "lat": 40.454062529522126, "lng": -79.93188141269417}], "distance": 783, "cc": "US", "city": "Pittsburgh", "state": "PA", "country": "United States", "formattedAddress": ["Roup ave (Baum blvd)", "Pittsburgh, PA", "United States"]}, "categories": [{"id": "52f2ab2ebcbc57f1066b8b46", "name": "Supermarket", "pluralName": "Supermarkets", "shortName": "Supermarket", "icon": {"prefix": "https://ss3.4sqi.net/img/categories_v2/shops/food_grocery_", "suffix": ".png"}, "primary": true}], "photos": {"count": 0, "groups": []}}, "referralId": "e-0-518ac466498ecfed3e8fc9a2-1"}]}]}}, "-79.93741|40.44208": {"meta": {"code": 200, "requestId": "5f13f4693aed6f3c7ea8a1b0"}, "response": {"warning": {"text": "There aren't a lot of results near you. Try something more general, reset your filters, or expand the search area."}, "headerLocation": "Pittsburgh", "headerFullLocation": "Pittsburgh", "headerLocationGranularity": "city", "query": "supermarket", "totalResults": 0, "suggestedBounds": {"ne": {"lat": 40.45108000900001, "lng": -79.92560648889767}, "sw": {"lat": 40.433079990999985, "lng": -79.94921351110233}}, "groups": [{"type": "Recommended Places", "name": "recommended", "items": []}]}}, "-79.93738|40.442040000000006": {"meta": {"code": 200, "requestId": "5f13f2e5669071485a2a0163"}, "response": {"warning": {"text": "There aren't a lot of results near you. Try something more general, reset your filters, or expand the search area."}, "headerLocation": "Pittsburgh", "headerFullLocation": "Pittsburgh", "headerLocationGranularity": "city", "query": "supermarket", "totalResults": 0, "suggestedBounds": {"ne": {"lat": 40.45104000900002, "lng": -79.92557649592125}, "sw": {"lat": 40.433039990999994, "lng": -79.94918350407876}}, "groups": [{"type": "Recommended Places", "name": "recommended", "items": []}]}}, "-79.93616|40.442029999999995": {"meta": {"code": 200, "requestId": "5f13f4f5d2cc403620168253"}, "response": {"warning": {"text": "There aren't a lot of results near you. Try something more general, reset your filters, or expand the search area."}, "headerLocation": "Pittsburgh", "headerFullLocation": "Pittsburgh", "headerLocationGranularity": "city", "query": "supermarket", "totalResults": 0, "suggestedBounds": {"ne": {"lat": 40.45103000900001, "lng": -79.92435649767714}, "sw": {"lat": 40.433029990999984, "lng": -79.94796350232286}}, "groups": [{"type": "Recommended Places", "name": "recommended", "items": []}]}}, "-79.93006|40.45831": {"meta": {"code": 200, "requestId": "5f13f3f2f8ec05702ae66f37"}, "response": {"headerLocation": "Shadyside", "headerFullLocation": "Shadyside, Pittsburgh", "headerLocationGranularity": "neighborhood", "query": "supermarket", "totalResults": 5, "suggestedBounds": {"ne": {"lat": 40.46731000900001, "lng": -79.91825363791943}, "sw": {"lat": 40.449309990999986, "lng": -79.94186636208056}}, "groups": [{"type": "Recommended Places", "name": "recommended", "items": [{"reasons": {"count": 0, "items": [{"summary": "This spot is popular", "type": "general", "reasonName": "globalInteractionReason"}]}, "venue": {"id": "518a8159498e5779f0ce0941", "name": "ALDI", "location": {"address": "5631 Baum Blvd", "crossStreet": "Roup Avenue", "lat": 40.4586334, "lng": -79.9350286, "labeledLatLngs": [{"label": "display", "lat": 40.4586334, "lng": -79.9350286}, {"label": "entrance", "lat": 40.458103, "lng": -79.934937}], "distance": 422, "postalCode": "15206", "cc": "US", "city": "Pittsburgh", "state": "PA", "country": "United States", "formattedAddress": ["5631 Baum Blvd (Roup Avenue)", "Pittsburgh, PA 15206", "United States"]}, "categories": [{"id": "4bf58dd8d48988d118951735", "name": "Grocery Store", "pluralName": "Grocery Stores", "shortName": "Grocery Store", "icon": {"prefix": "https://ss3.4sqi.net/img/categories_v2/shops/food_grocery_", "suffix": ".png"}, "primary": true}], "photos": {"count": 0, "groups": []}}, "referralId": "e-0-518a8159498e5779f0ce0941-0"}, {"reasons": {"count": 0, "items": [{"summary": "This spot is popular", "type": "general", "reasonName": "globalInteractionReason"}]}, "venue": {"id": "4ad8bdf6f964a5203c1421e3", "name": "Trader Joe's", "location": {"address": "6343 Penn Ave", "lat": 40.45900894552991, "lng": -79.91895717473288, "labeledLatLngs": [{"label": "display", "lat": 40.45900894552991, "lng": -79.91895717473288}], "distance": 943, "postalCode": "15206", "cc": "US", "city": "Pittsburgh", "state": "PA", "country": "United States", "formattedAddress": ["6343 Penn Ave", "Pittsburgh, PA 15206", "United States"]}, "categories": [{"id": "52f2ab2ebcbc57f1066b8b46", "name": "Supermarket", "pluralName": "Supermarkets", "shortName": "Supermarket", "icon": {"prefix": "https://ss3.4sqi.net/img/categories_v2/shops/food_grocery_", "suffix": ".png"}, "primary": true}], "photos": {"count": 0, "groups": []}}, "referralId": "e-0-4ad8bdf6f964a5203c1421e3-1"}, {"reasons": {"count": 0, "items": [{"summary": "This spot is popular", "type": "general", "reasonName": "globalInteractionReason"}]}, "venue": {"id": "4a36f484f964a5200f9e1fe3", "name": "Market District Supermarket", "location": {"address": "5550 Centre Ave", "crossStreet": "at S Negley Ave", "lat": 40.4566178038739, "lng": -79.93470131513821, "labeledLatLngs": [{"label": "display", "lat": 40.4566178038739, "lng": -79.93470131513821}], "distance": 435, "postalCode": "15232", "cc": "US", "city": "Pittsburgh", "state": "PA", "country": "United States", "formattedAddress": ["5550 Centre Ave (at S Negley Ave)", "Pittsburgh, PA 15232", "United States"]}, "categories": [{"id": "52f2ab2ebcbc57f1066b8b46", "name": "Supermarket", "pluralName": "Supermarkets", "shortName": "Supermarket", "icon": {"prefix": "https://ss3.4sqi.net/img/categories_v2/shops/food_grocery_", "suffix": ".png"}, "primary": true}], "photos": {"count": 0, "groups": []}}, "referralId": "e-0-4a36f484f964a5200f9e1fe3-2"}, {"reasons": {"count": 0, "items": [{"summary": "This spot is popular", "type": "general", "reasonName": "globalInteractionReason"}]}, "venue": {"id": "518ac466498ecfed3e8fc9a2", "name": "ALDI", "location": {"address": "Roup ave", "crossStreet": "Baum blvd", "lat": 40.454062529522126, "lng": -79.93188141269417, "labeledLatLngs": [{"label": "display", "lat": 40.454062529522126, "lng": -79.93188141269417}], "distance": 497, "cc": "US", "city": "Pittsburgh", "state": "PA", "country": "United States", "formattedAddress": ["Roup ave (Baum blvd)", "Pittsburgh, PA", "United States"]}, "categories": [{"id": "52f2ab2ebcbc57f1066b8b46", "name": "Supermarket", "pluralName": "Supermarkets", "shortName": "Supermarket", "icon": {"prefix": "https://ss3.4sqi.net/img/categories_v2/shops/food_grocery_", "suffix": ".png"}, "primary": true}], "photos": {"count": 0, "groups": []}}, "referralId": "e-0-518ac466498ecfed3e8fc9a2-3"}, {"reasons": {"count": 0, "items": [{"summary": "This spot is popular", "type": "general", "reasonName": "globalInteractionReason"}]}, "venue": {"id": "4ae24cf4f964a520ff8c21e3", "name": "Giant Eagle Supermarket", "location": {"address": "6320 Shakespeare St", "crossStreet": "at Shady Ave", "lat": 40.458647945030286, "lng": -79.92126358858106, "labeledLatLngs": [{"label": "display", "lat": 40.458647945030286, "lng": -79.92126358858106}], "distance": 746, "postalCode": "15206", "cc": "US", "city": "Pittsburgh", "state": "PA", "country": "United States", "formattedAddress": ["6320 Shakespeare St (at Shady Ave)", "Pittsburgh, PA 15206", "United States"]}, "categories": [{"id": "52f2ab2ebcbc57f1066b8b46", "name": "Supermarket", "pluralName": "Supermarkets", "shortName": "Supermarket", "icon": {"prefix": "https://ss3.4sqi.net/img/categories_v2/shops/food_grocery_", "suffix": ".png"}, "primary": true}], "photos": {"count": 0, "groups": []}}, "referralId": "e-0-4ae24cf4f964a520ff8c21e3-4"}]}]}}, "-79.92368|40.4582": {"meta": {"code": 200, "requestId": "5f13f586b2f69d1e8b7ac59a"}, "response": {"headerLocation": "Shadyside", "headerFullLocation": "Shadyside, Pittsburgh", "headerLocationGranularity": "neighborhood", "query": "supermarket", "totalResults": 5, "suggestedBounds": {"ne": {"lat": 40.46720000900001, "lng": -79.91187365724998}, "sw": {"lat": 40.449199990999986, "lng": -79.93548634275002}}, "groups": [{"type": "Recommended Places", "name": "recommended", "items": [{"reasons": {"count": 0, "items": [{"summary": "This spot is popular", "type": "general", "reasonName": "globalInteractionReason"}]}, "venue": {"id": "4ad8bdf6f964a5203c1421e3", "name": "Trader Joe's", "location": {"address": "6343 Penn Ave", "lat": 40.45900894552991, "lng": -79.91895717473288, "labeledLatLngs": [{"label": "display", "lat": 40.45900894552991, "lng": -79.91895717473288}], "distance": 410, "postalCode": "15206", "cc": "US", "city": "Pittsburgh", "state": "PA", "country": "United States", "formattedAddress": ["6343 Penn Ave", "Pittsburgh, PA 15206", "United States"]}, "categories": [{"id": "52f2ab2ebcbc57f1066b8b46", "name": "Supermarket", "pluralName": "Supermarkets", "shortName": "Supermarket", "icon": {"prefix": "https://ss3.4sqi.net/img/categories_v2/shops/food_grocery_", "suffix": ".png"}, "primary": true}], "photos": {"count": 0, "groups": []}}, "referralId": "e-0-4ad8bdf6f964a5203c1421e3-0"}, {"reasons": {"count": 0, "items": [{"summary": "This spot is popular", "type": "general", "reasonName": "globalInteractionReason"}]}, "venue": {"id": "518a8159498e5779f0ce0941", "name": "ALDI", "location": {"address": "5631 Baum Blvd", "crossStreet": "Roup Avenue", "lat": 40.4586334, "lng": -79.9350286, "labeledLatLngs": [{"label": "display", "lat": 40.4586334, "lng": -79.9350286}, {"label": "entrance", "lat": 40.458103, "lng": -79.934937}], "distance": 962, "postalCode": "15206", "cc": "US", "city": "Pittsburgh", "state": "PA", "country": "United States", "formattedAddress": ["5631 Baum Blvd (Roup Avenue)", "Pittsburgh, PA 15206", "United States"]}, "categories": [{"id": "4bf58dd8d48988d118951735", "name": "Grocery Store", "pluralName": "Grocery Stores", "shortName": "Grocery Store", "icon": {"prefix": "https://ss3.4sqi.net/img/categories_v2/shops/food_grocery_", "suffix": ".png"}, "primary": true}], "photos": {"count": 0, "groups": []}}, "referralId": "e-0-518a8159498e5779f0ce0941-1"}, {"reasons": {"count": 0, "items": [{"summary": "This spot is popular", "type": "general", "reasonName": "globalInteractionReason"}]}, "venue": {"id": "4a36f484f964a5200f9e1fe3", "name": "Market District Supermarket", "location": {"address": "5550 Centre Ave", "crossStreet": "at S Negley Ave", "lat": 40.4566178038739, "lng": -79.93470131513821, "labeledLatLngs": [{"label": "display", "lat": 40.4566178038739, "lng": -79.93470131513821}], "distance": 949, "postalCode": "15232", "cc": "US", "city": "Pittsburgh", "state": "PA", "country": "United States", "formattedAddress": ["5550 Centre Ave (at S Negley Ave)", "Pittsburgh, PA 15232", "United States"]}, "categories": [{"id": "52f2ab2ebcbc57f1066b8b46", "name": "Supermarket", "pluralName": "Supermarkets", "shortName": "Supermarket", "icon": {"prefix": "https://ss3.4sqi.net/img/categories_v2/shops/food_grocery_", "suffix": ".png"}, "primary": true}], "photos": {"count": 0, "groups": []}}, "referralId": "e-0-4a36f484f964a5200f9e1fe3-2"}, {"reasons": {"count": 0, "items": [{"summary": "This spot is popular", "type": "general", "reasonName": "globalInteractionReason"}]}, "venue": {"id": "4ae24cf4f964a520ff8c21e3", "name": "Giant Eagle Supermarket", "location": {"address": "6320 Shakespeare St", "crossStreet": "at Shady Ave", "lat": 40.458647945030286, "lng": -79.92126358858106, "labeledLatLngs": [{"label": "display", "lat": 40.458647945030286, "lng": -79.92126358858106}], "distance": 210, "postalCode": "15206", "cc": "US", "city": "Pittsburgh", "state": "PA", "country": "United States", "formattedAddress": ["6320 Shakespeare St (at Shady Ave)", "Pittsburgh, PA 15206", "United States"]}, "categories": [{"id": "52f2ab2ebcbc57f1066b8b46", "name": "Supermarket", "pluralName": "Supermarkets", "shortName": "Supermarket", "icon": {"prefix": "https://ss3.4sqi.net/img/categories_v2/shops/food_grocery_", "suffix": ".png"}, "primary": true}], "photos": {"count": 0, "groups": []}}, "referralId": "e-0-4ae24cf4f964a520ff8c21e3-3"}, {"reasons": {"count": 0, "items": [{"summary": "This spot is popular", "type": "general", "reasonName": "globalInteractionReason"}]}, "venue": {"id": "518ac466498ecfed3e8fc9a2", "name": "ALDI", "location": {"address": "Roup ave", "crossStreet": "Baum blvd", "lat": 40.454062529522126, "lng": -79.93188141269417, "labeledLatLngs": [{"label": "display", "lat": 40.454062529522126, "lng": -79.93188141269417}], "distance": 833, "cc": "US", "city": "Pittsburgh", "state": "PA", "country": "United States", "formattedAddress": ["Roup ave (Baum blvd)", "Pittsburgh, PA", "United States"]}, "categories": [{"id": "52f2ab2ebcbc57f1066b8b46", "name": "Supermarket", "pluralName": "Supermarkets", "shortName": "Supermarket", "icon": {"prefix": "https://ss3.4sqi.net/img/categories_v2/shops/food_grocery_", "suffix": ".png"}, "primary": true}], "photos": {"count": 0, "groups": []}}, "referralId": "e-0-518ac466498ecfed3e8fc9a2-4"}]}]}}, "-79.92368990000001|40.45812": {"meta": {"code": 200, "requestId": "5f13f38f417c2434e49505e4"}, "response": {"headerLocation": "Shadyside", "headerFullLocation": "Shadyside, Pittsburgh", "headerLocationGranularity": "neighborhood", "query": "supermarket", "totalResults": 5, "suggestedBounds": {"ne": {"lat": 40.46712000900001, "lng": -79.9118835713085}, "sw": {"lat": 40.44911999099999, "lng": -79.93549622869153}}, "groups": [{"type": "Recommended Places", "name": "recommended", "items": [{"reasons": {"count": 0, "items": [{"summary": "This spot is popular", "type": "general", "reasonName": "globalInteractionReason"}]}, "venue": {"id": "4ad8bdf6f964a5203c1421e3", "name": "Trader Joe's", "location": {"address": "6343 Penn Ave", "lat": 40.45900894552991, "lng": -79.91895717473288, "labeledLatLngs": [{"label": "display", "lat": 40.45900894552991, "lng": -79.91895717473288}], "distance": 412, "postalCode": "15206", "cc": "US", "city": "Pittsburgh", "state": "PA", "country": "United States", "formattedAddress": ["6343 Penn Ave", "Pittsburgh, PA 15206", "United States"]}, "categories": [{"id": "52f2ab2ebcbc57f1066b8b46", "name": "Supermarket", "pluralName": "Supermarkets", "shortName": "Supermarket", "icon": {"prefix": "https://ss3.4sqi.net/img/categories_v2/shops/food_grocery_", "suffix": ".png"}, "primary": true}], "photos": {"count": 0, "groups": []}}, "referralId": "e-0-4ad8bdf6f964a5203c1421e3-0"}, {"reasons": {"count": 0, "items": [{"summary": "This spot is popular", "type": "general", "reasonName": "globalInteractionReason"}]}, "venue": {"id": "518a8159498e5779f0ce0941", "name": "ALDI", "location": {"address": "5631 Baum Blvd", "crossStreet": "Roup Avenue", "lat": 40.4586334, "lng": -79.9350286, "labeledLatLngs": [{"label": "display", "lat": 40.4586334, "lng": -79.9350286}, {"label": "entrance", "lat": 40.458103, "lng": -79.934937}], "distance": 962, "postalCode": "15206", "cc": "US", "city": "Pittsburgh", "state": "PA", "country": "United States", "formattedAddress": ["5631 Baum Blvd (Roup Avenue)", "Pittsburgh, PA 15206", "United States"]}, "categories": [{"id": "4bf58dd8d48988d118951735", "name": "Grocery Store", "pluralName": "Grocery Stores", "shortName": "Grocery Store", "icon": {"prefix": "https://ss3.4sqi.net/img/categories_v2/shops/food_grocery_", "suffix": ".png"}, "primary": true}], "photos": {"count": 0, "groups": []}}, "referralId": "e-0-518a8159498e5779f0ce0941-1"}, {"reasons": {"count": 0, "items": [{"summary": "This spot is popular", "type": "general", "reasonName": "globalInteractionReason"}]}, "venue": {"id": "4a36f484f964a5200f9e1fe3", "name": "Market District Supermarket", "location": {"address": "5550 Centre Ave", "crossStreet": "at S Negley Ave", "lat": 40.4566178038739, "lng": -79.93470131513821, "labeledLatLngs": [{"label": "display", "lat": 40.4566178038739, "lng": -79.93470131513821}], "distance": 947, "postalCode": "15232", "cc": "US", "city": "Pittsburgh", "state": "PA", "country": "United States", "formattedAddress": ["5550 Centre Ave (at S Negley Ave)", "Pittsburgh, PA 15232", "United States"]}, "categories": [{"id": "52f2ab2ebcbc57f1066b8b46", "name": "Supermarket", "pluralName": "Supermarkets", "shortName": "Supermarket", "icon": {"prefix": "https://ss3.4sqi.net/img/categories_v2/shops/food_grocery_", "suffix": ".png"}, "primary": true}], "photos": {"count": 0, "groups": []}}, "referralId": "e-0-4a36f484f964a5200f9e1fe3-2"}, {"reasons": {"count": 0, "items": [{"summary": "This spot is popular", "type": "general", "reasonName": "globalInteractionReason"}]}, "venue": {"id": "4ae24cf4f964a520ff8c21e3", "name": "Giant Eagle Supermarket", "location": {"address": "6320 Shakespeare St", "crossStreet": "at Shady Ave", "lat": 40.458647945030286, "lng": -79.92126358858106, "labeledLatLngs": [{"label": "display", "lat": 40.458647945030286, "lng": -79.92126358858106}], "distance": 213, "postalCode": "15206", "cc": "US", "city": "Pittsburgh", "state": "PA", "country": "United States", "formattedAddress": ["6320 Shakespeare St (at Shady Ave)", "Pittsburgh, PA 15206", "United States"]}, "categories": [{"id": "52f2ab2ebcbc57f1066b8b46", "name": "Supermarket", "pluralName": "Supermarkets", "shortName": "Supermarket", "icon": {"prefix": "https://ss3.4sqi.net/img/categories_v2/shops/food_grocery_", "suffix": ".png"}, "primary": true}], "photos": {"count": 0, "groups": []}}, "referralId": "e-0-4ae24cf4f964a520ff8c21e3-3"}, {"reasons": {"count": 0, "items": [{"summary": "This spot is popular", "type": "general", "reasonName": "globalInteractionReason"}]}, "venue": {"id": "518ac466498ecfed3e8fc9a2", "name": "ALDI", "location": {"address": "Roup ave", "crossStreet": "Baum blvd", "lat": 40.454062529522126, "lng": -79.93188141269417, "labeledLatLngs": [{"label": "display", "lat": 40.454062529522126, "lng": -79.93188141269417}], "distance": 827, "cc": "US", "city": "Pittsburgh", "state": "PA", "country": "United States", "formattedAddress": ["Roup ave (Baum blvd)", "Pittsburgh, PA", "United States"]}, "categories": [{"id": "52f2ab2ebcbc57f1066b8b46", "name": "Supermarket", "pluralName": "Supermarkets", "shortName": "Supermarket", "icon": {"prefix": "https://ss3.4sqi.net/img/categories_v2/shops/food_grocery_", "suffix": ".png"}, "primary": true}], "photos": {"count": 0, "groups": []}}, "referralId": "e-0-518ac466498ecfed3e8fc9a2-4"}]}]}}, "-79.91985|40.45792": {"meta": {"code": 200, "requestId": "5f13f3667d013b6dd040a188"}, "response": {"warning": {"text": "There aren't a lot of results near you. Try something more general, reset your filters, or expand the search area."}, "headerLocation": "Shadyside", "headerFullLocation": "Shadyside, Pittsburgh", "headerLocationGranularity": "neighborhood", "query": "supermarket", "totalResults": 2, "suggestedBounds": {"ne": {"lat": 40.46692000900001, "lng": -79.90804370645449}, "sw": {"lat": 40.44891999099999, "lng": -79.9316562935455}}, "groups": [{"type": "Recommended Places", "name": "recommended", "items": [{"reasons": {"count": 0, "items": [{"summary": "This spot is popular", "type": "general", "reasonName": "globalInteractionReason"}]}, "venue": {"id": "4ad8bdf6f964a5203c1421e3", "name": "Trader Joe's", "location": {"address": "6343 Penn Ave", "lat": 40.45900894552991, "lng": -79.91895717473288, "labeledLatLngs": [{"label": "display", "lat": 40.45900894552991, "lng": -79.91895717473288}], "distance": 142, "postalCode": "15206", "cc": "US", "city": "Pittsburgh", "state": "PA", "country": "United States", "formattedAddress": ["6343 Penn Ave", "Pittsburgh, PA 15206", "United States"]}, "categories": [{"id": "52f2ab2ebcbc57f1066b8b46", "name": "Supermarket", "pluralName": "Supermarkets", "shortName": "Supermarket", "icon": {"prefix": "https://ss3.4sqi.net/img/categories_v2/shops/food_grocery_", "suffix": ".png"}, "primary": true}], "photos": {"count": 0, "groups": []}}, "referralId": "e-0-4ad8bdf6f964a5203c1421e3-0"}, {"reasons": {"count": 0, "items": [{"summary": "This spot is popular", "type": "general", "reasonName": "globalInteractionReason"}]}, "venue": {"id": "4ae24cf4f964a520ff8c21e3", "name": "Giant Eagle Supermarket", "location": {"address": "6320 Shakespeare St", "crossStreet": "at Shady Ave", "lat": 40.458647945030286, "lng": -79.92126358858106, "labeledLatLngs": [{"label": "display", "lat": 40.458647945030286, "lng": -79.92126358858106}], "distance": 144, "postalCode": "15206", "cc": "US", "city": "Pittsburgh", "state": "PA", "country": "United States", "formattedAddress": ["6320 Shakespeare St (at Shady Ave)", "Pittsburgh, PA 15206", "United States"]}, "categories": [{"id": "52f2ab2ebcbc57f1066b8b46", "name": "Supermarket", "pluralName": "Supermarkets", "shortName": "Supermarket", "icon": {"prefix": "https://ss3.4sqi.net/img/categories_v2/shops/food_grocery_", "suffix": ".png"}, "primary": true}], "photos": {"count": 0, "groups": []}}, "referralId": "e-0-4ae24cf4f964a520ff8c21e3-1"}]}]}}, "-79.92801999999999|40.45535": {"meta": {"code": 200, "requestId": "5f13f363bc542b0b9af1407f"}, "response": {"headerLocation": "Shadyside", "headerFullLocation": "Shadyside, Pittsburgh", "headerLocationGranularity": "neighborhood", "query": "supermarket", "totalResults": 5, "suggestedBounds": {"ne": {"lat": 40.464350009000015, "lng": -79.91621415804934}, "sw": {"lat": 40.44634999099999, "lng": -79.93982584195064}}, "groups": [{"type": "Recommended Places", "name": "recommended", "items": [{"reasons": {"count": 0, "items": [{"summary": "This spot is popular", "type": "general", "reasonName": "globalInteractionReason"}]}, "venue": {"id": "4ad8bdf6f964a5203c1421e3", "name": "Trader Joe's", "location": {"address": "6343 Penn Ave", "lat": 40.45900894552991, "lng": -79.91895717473288, "labeledLatLngs": [{"label": "display", "lat": 40.45900894552991, "lng": -79.91895717473288}], "distance": 869, "postalCode": "15206", "cc": "US", "city": "Pittsburgh", "state": "PA", "country": "United States", "formattedAddress": ["6343 Penn Ave", "Pittsburgh, PA 15206", "United States"]}, "categories": [{"id": "52f2ab2ebcbc57f1066b8b46", "name": "Supermarket", "pluralName": "Supermarkets", "shortName": "Supermarket", "icon": {"prefix": "https://ss3.4sqi.net/img/categories_v2/shops/food_grocery_", "suffix": ".png"}, "primary": true}], "photos": {"count": 0, "groups": []}}, "referralId": "e-0-4ad8bdf6f964a5203c1421e3-0"}, {"reasons": {"count": 0, "items": [{"summary": "This spot is popular", "type": "general", "reasonName": "globalInteractionReason"}]}, "venue": {"id": "518a8159498e5779f0ce0941", "name": "ALDI", "location": {"address": "5631 Baum Blvd", "crossStreet": "Roup Avenue", "lat": 40.4586334, "lng": -79.9350286, "labeledLatLngs": [{"label": "display", "lat": 40.4586334, "lng": -79.9350286}, {"label": "entrance", "lat": 40.458103, "lng": -79.934937}], "distance": 697, "postalCode": "15206", "cc": "US", "city": "Pittsburgh", "state": "PA", "country": "United States", "formattedAddress": ["5631 Baum Blvd (Roup Avenue)", "Pittsburgh, PA 15206", "United States"]}, "categories": [{"id": "4bf58dd8d48988d118951735", "name": "Grocery Store", "pluralName": "Grocery Stores", "shortName": "Grocery Store", "icon": {"prefix": "https://ss3.4sqi.net/img/categories_v2/shops/food_grocery_", "suffix": ".png"}, "primary": true}], "photos": {"count": 0, "groups": []}}, "referralId": "e-0-518a8159498e5779f0ce0941-1"}, {"reasons": {"count": 0, "items": [{"summary": "This spot is popular", "type": "general", "reasonName": "globalInteractionReason"}]}, "venue": {"id": "4a36f484f964a5200f9e1fe3", "name": "Market District Supermarket", "location": {"address": "5550 Centre Ave", "crossStreet": "at S Negley Ave", "lat": 40.4566178038739, "lng": -79.93470131513821, "labeledLatLngs": [{"label": "display", "lat": 40.4566178038739, "lng": -79.93470131513821}], "distance": 583, "postalCode": "15232", "cc": "US", "city": "Pittsburgh", "state": "PA", "country": "United States", "formattedAddress": ["5550 Centre Ave (at S Negley Ave)", "Pittsburgh, PA 15232", "United States"]}, "categories": [{"id": "52f2ab2ebcbc57f1066b8b46", "name": "Supermarket", "pluralName": "Supermarkets", "shortName": "Supermarket", "icon": {"prefix": "https://ss3.4sqi.net/img/categories_v2/shops/food_grocery_", "suffix": ".png"}, "primary": true}], "photos": {"count": 0, "groups": []}}, "referralId": "e-0-4a36f484f964a5200f9e1fe3-2"}, {"reasons": {"count": 0, "items": [{"summary": "This spot is popular", "type": "general", "reasonName": "globalInteractionReason"}]}, "venue": {"id": "518ac466498ecfed3e8fc9a2", "name": "ALDI", "location": {"address": "Roup ave", "crossStreet": "Baum blvd", "lat": 40.454062529522126, "lng": -79.93188141269417, "labeledLatLngs": [{"label": "display", "lat": 40.454062529522126, "lng": -79.93188141269417}], "distance": 357, "cc": "US", "city": "Pittsburgh", "state": "PA", "country": "United States", "formattedAddress": ["Roup ave (Baum blvd)", "Pittsburgh, PA", "United States"]}, "categories": [{"id": "52f2ab2ebcbc57f1066b8b46", "name": "Supermarket", "pluralName": "Supermarkets", "shortName": "Supermarket", "icon": {"prefix": "https://ss3.4sqi.net/img/categories_v2/shops/food_grocery_", "suffix": ".png"}, "primary": true}], "photos": {"count": 0, "groups": []}}, "referralId": "e-0-518ac466498ecfed3e8fc9a2-3"}, {"reasons": {"count": 0, "items": [{"summary": "This spot is popular", "type": "general", "reasonName": "globalInteractionReason"}]}, "venue": {"id": "4ae24cf4f964a520ff8c21e3", "name": "Giant Eagle Supermarket", "location": {"address": "6320 Shakespeare St", "crossStreet": "at Shady Ave", "lat": 40.458647945030286, "lng": -79.92126358858106, "labeledLatLngs": [{"label": "display", "lat": 40.458647945030286, "lng": -79.92126358858106}], "distance": 679, "postalCode": "15206", "cc": "US", "city": "Pittsburgh", "state": "PA", "country": "United States", "formattedAddress": ["6320 Shakespeare St (at Shady Ave)", "Pittsburgh, PA 15206", "United States"]}, "categories": [{"id": "52f2ab2ebcbc57f1066b8b46", "name": "Supermarket", "pluralName": "Supermarkets", "shortName": "Supermarket", "icon": {"prefix": "https://ss3.4sqi.net/img/categories_v2/shops/food_grocery_", "suffix": ".png"}, "primary": true}], "photos": {"count": 0, "groups": []}}, "referralId": "e-0-4ae24cf4f964a520ff8c21e3-4"}]}]}}, "-79.92611|40.45698": {"meta": {"code": 200, "requestId": "5f13f270d132907d7c8542e6"}, "response": {"headerLocation": "Shadyside", "headerFullLocation": "Shadyside, Pittsburgh", "headerLocationGranularity": "neighborhood", "query": "supermarket", "totalResults": 5, "suggestedBounds": {"ne": {"lat": 40.46598000900001, "lng": -79.91430387163602}, "sw": {"lat": 40.44797999099999, "lng": -79.93791612836397}}, "groups": [{"type": "Recommended Places", "name": "recommended", "items": [{"reasons": {"count": 0, "items": [{"summary": "This spot is popular", "type": "general", "reasonName": "globalInteractionReason"}]}, "venue": {"id": "4ad8bdf6f964a5203c1421e3", "name": "Trader Joe's", "location": {"address": "6343 Penn Ave", "lat": 40.45900894552991, "lng": -79.91895717473288, "labeledLatLngs": [{"label": "display", "lat": 40.45900894552991, "lng": -79.91895717473288}], "distance": 646, "postalCode": "15206", "cc": "US", "city": "Pittsburgh", "state": "PA", "country": "United States", "formattedAddress": ["6343 Penn Ave", "Pittsburgh, PA 15206", "United States"]}, "categories": [{"id": "52f2ab2ebcbc57f1066b8b46", "name": "Supermarket", "pluralName": "Supermarkets", "shortName": "Supermarket", "icon": {"prefix": "https://ss3.4sqi.net/img/categories_v2/shops/food_grocery_", "suffix": ".png"}, "primary": true}], "photos": {"count": 0, "groups": []}}, "referralId": "e-0-4ad8bdf6f964a5203c1421e3-0"}, {"reasons": {"count": 0, "items": [{"summary": "This spot is popular", "type": "general", "reasonName": "globalInteractionReason"}]}, "venue": {"id": "518a8159498e5779f0ce0941", "name": "ALDI", "location": {"address": "5631 Baum Blvd", "crossStreet": "Roup Avenue", "lat": 40.4586334, "lng": -79.9350286, "labeledLatLngs": [{"label": "display", "lat": 40.4586334, "lng": -79.9350286}, {"label": "entrance", "lat": 40.458103, "lng": -79.934937}], "distance": 777, "postalCode": "15206", "cc": "US", "city": "Pittsburgh", "state": "PA", "country": "United States", "formattedAddress": ["5631 Baum Blvd (Roup Avenue)", "Pittsburgh, PA 15206", "United States"]}, "categories": [{"id": "4bf58dd8d48988d118951735", "name": "Grocery Store", "pluralName": "Grocery Stores", "shortName": "Grocery Store", "icon": {"prefix": "https://ss3.4sqi.net/img/categories_v2/shops/food_grocery_", "suffix": ".png"}, "primary": true}], "photos": {"count": 0, "groups": []}}, "referralId": "e-0-518a8159498e5779f0ce0941-1"}, {"reasons": {"count": 0, "items": [{"summary": "This spot is popular", "type": "general", "reasonName": "globalInteractionReason"}]}, "venue": {"id": "4a36f484f964a5200f9e1fe3", "name": "Market District Supermarket", "location": {"address": "5550 Centre Ave", "crossStreet": "at S Negley Ave", "lat": 40.4566178038739, "lng": -79.93470131513821, "labeledLatLngs": [{"label": "display", "lat": 40.4566178038739, "lng": -79.93470131513821}], "distance": 728, "postalCode": "15232", "cc": "US", "city": "Pittsburgh", "state": "PA", "country": "United States", "formattedAddress": ["5550 Centre Ave (at S Negley Ave)", "Pittsburgh, PA 15232", "United States"]}, "categories": [{"id": "52f2ab2ebcbc57f1066b8b46", "name": "Supermarket", "pluralName": "Supermarkets", "shortName": "Supermarket", "icon": {"prefix": "https://ss3.4sqi.net/img/categories_v2/shops/food_grocery_", "suffix": ".png"}, "primary": true}], "photos": {"count": 0, "groups": []}}, "referralId": "e-0-4a36f484f964a5200f9e1fe3-2"}, {"reasons": {"count": 0, "items": [{"summary": "This spot is popular", "type": "general", "reasonName": "globalInteractionReason"}]}, "venue": {"id": "518ac466498ecfed3e8fc9a2", "name": "ALDI", "location": {"address": "Roup ave", "crossStreet": "Baum blvd", "lat": 40.454062529522126, "lng": -79.93188141269417, "labeledLatLngs": [{"label": "display", "lat": 40.454062529522126, "lng": -79.93188141269417}], "distance": 586, "cc": "US", "city": "Pittsburgh", "state": "PA", "country": "United States", "formattedAddress": ["Roup ave (Baum blvd)", "Pittsburgh, PA", "United States"]}, "categories": [{"id": "52f2ab2ebcbc57f1066b8b46", "name": "Supermarket", "pluralName": "Supermarkets", "shortName": "Supermarket", "icon": {"prefix": "https://ss3.4sqi.net/img/categories_v2/shops/food_grocery_", "suffix": ".png"}, "primary": true}], "photos": {"count": 0, "groups": []}}, "referralId": "e-0-518ac466498ecfed3e8fc9a2-3"}, {"reasons": {"count": 0, "items": [{"summary": "This spot is popular", "type": "general", "reasonName": "globalInteractionReason"}]}, "venue": {"id": "4ae24cf4f964a520ff8c21e3", "name": "Giant Eagle Supermarket", "location": {"address": "6320 Shakespeare St", "crossStreet": "at Shady Ave", "lat": 40.458647945030286, "lng": -79.92126358858106, "labeledLatLngs": [{"label": "display", "lat": 40.458647945030286, "lng": -79.92126358858106}], "distance": 450, "postalCode": "15206", "cc": "US", "city": "Pittsburgh", "state": "PA", "country": "United States", "formattedAddress": ["6320 Shakespeare St (at Shady Ave)", "Pittsburgh, PA 15206", "United States"]}, "categories": [{"id": "52f2ab2ebcbc57f1066b8b46", "name": "Supermarket", "pluralName": "Supermarkets", "shortName": "Supermarket", "icon": {"prefix": "https://ss3.4sqi.net/img/categories_v2/shops/food_grocery_", "suffix": ".png"}, "primary": true}], "photos": {"count": 0, "groups": []}}, "referralId": "e-0-4ae24cf4f964a520ff8c21e3-4"}]}]}}, "-79.9254|40.45742": {"meta": {"code": 200, "requestId": "5f13f53d73700071f2667ad0"}, "response": {"headerLocation": "Shadyside", "headerFullLocation": "Shadyside, Pittsburgh", "headerLocationGranularity": "neighborhood", "query": "supermarket", "totalResults": 5, "suggestedBounds": {"ne": {"lat": 40.46642000900001, "lng": -79.91359379431799}, "sw": {"lat": 40.44841999099999, "lng": -79.937206205682}}, "groups": [{"type": "Recommended Places", "name": "recommended", "items": [{"reasons": {"count": 0, "items": [{"summary": "This spot is popular", "type": "general", "reasonName": "globalInteractionReason"}]},